Number,Name,County,Metres,Latitude,Longitude
1,Ben Chonzie,Perth and Kinross,931,56.453851,-3.992057
2,Creagan na Beinne,Perth and Kinross,888,56.506918,-4.041691
3,Creag Uchdag,Perth and Kinross,879,56.465278,-4.098107
4,Auchnafree Hill,Perth and Kinross,789,56.454346,-3.934667
5,Shee of Ardtalnaig,Perth and Kinross,759,56.491391,-4.06498
6,Beinn na Gainimh,Perth and Kinross,730,56.487851,-3.890016
7,Meall Buidhe,Stirling,719,56.419004,-4.308645
8,Creag Ruadh,Perth and Kinross,712,56.436799,-4.152193
9,Meall Dearg,Perth and Kinross,690,56.552183,-3.812768
10,Creag Each,Perth and Kinross,673.7,56.410297,-4.185395
11,Creag Gharbh,Stirling,637.4,56.46677,-4.221506
12,Meall nan Caorach,Perth and Kinross,623.6,56.484891,-3.741256
13,Meall Reamhar,Perth and Kinross,617.8,56.479066,-3.751689
14,Creag na Criche,Perth and Kinross,456.8,56.496887,-3.649095
15,Birnam Hill - King's Seat,Perth and Kinross,403.8,56.543547,-3.575752
16,Knock of Crieff,Perth and Kinross,279,56.389329,-3.826973
17,Ben Vorlich,Perth and Kinross,985,56.34268,-4.219464
18,Stuc a'Chroin,Perth and Kinross,975,56.329315,-4.237533
19,Beinn Each,Stirling,813,56.313957,-4.262199
20,Meall na Fearna,Perth and Kinross,809,56.341247,-4.184316
21,Beinn Dearg,Perth and Kinross,706.6,56.352093,-4.110623
22,Sgiath a'Chaise,Stirling,644.2,56.323605,-4.29177
23,Mor Bheinn,Perth and Kinross,640.3,56.365368,-4.079704
24,Ben Clach,Perth and Kinross,533,56.31322,-4.007267
25,Torlum,Perth and Kinross,393,56.350611,-3.912514
26,Ben More,Stirling,1174,56.385952,-4.540103
27,Stob Binnein,Stirling,1165,56.370726,-4.535753
28,Stob Coire an Lochain,Stirling,1068,56.364913,-4.529521
29,Cruach Ardrain SW Top,Stirling,1044.9,56.355467,-4.577899
30,Cruach Ardrain,Stirling,1045.9,56.356429,-4.576151
31,An Caisteal,Stirling,995.8,56.3386,-4.624368
32,Ben Lomond,Stirling,974,56.190284,-4.633008
33,Meall na Dige,Stirling,966,56.370157,-4.510289
34,Stob Garbh,Stirling,957.7,56.364811,-4.573721
35,Beinn Tulaichean,Stirling,945.8,56.342216,-4.56333
36,Beinn a'Chroin East Top,Stirling,940.1,56.332393,-4.599295
37,Beinn a'Chroin West Top,Stirling,938,56.331719,-4.612328
38,Beinn Chabhair,Stirling,932.1,56.325775,-4.641485
39,Creag a'Bhragit,Stirling,923,56.368977,-4.513515
40,Stob Garbh SE Top,Stirling,923.4,56.361037,-4.570665
41,Stob Creagach,Stirling,906,56.37552,-4.496211
42,Ben Ledi,Stirling,879,56.258659,-4.322375
43,Stob a'Choin,Stirling,869,56.309674,-4.560146
44,Meall an t-Seallaidh,Stirling,852,56.380403,-4.362598
45,Benvane,Stirling,821,56.293295,-4.368435
46,Creag Mac Ranaich,Stirling,808.6,56.399888,-4.358071
47,Beinn Stacach,Stirling,771,56.31467,-4.468143
48,Beinn a'Choin,Argyll and Bute,768.7,56.281081,-4.659947
49,The Stob,Stirling,753.6,56.376801,-4.444527
50,Meall Mor,Stirling,747,56.301077,-4.613679
51,Ben Venue,Stirling,729,56.225006,-4.461986
52,Stob Breac,Stirling,688,56.316392,-4.51208
53,Meall Cala,Stirling,674,56.283892,-4.411285
54,Creag Mhor,Stirling,658,56.335473,-4.411255
55,Cruinn a'Bheinn,Stirling,632,56.210735,-4.637088
56,Beinn Uamha,Stirling,596,56.227267,-4.604292
57,Beinn Uird,Stirling,597,56.152448,-4.578276
58,Binnean nan Gobhar,Stirling,586,56.137292,-4.545856
59,Beinn an t-Sidhein,Stirling,572,56.330759,-4.351667
60,Meall Gainmheich,Stirling,566,56.254715,-4.407384
61,Beinn Dubh,Stirling,508,56.206333,-4.573894
62,Beinn Dearg,Stirling,427,56.205721,-4.276572
63,Craig of Monievreckie,Stirling,400,56.188425,-4.342241
64,Conic Hill,Stirling,361,56.098586,-4.521076
65,Ben Lui,Stirling,1130,56.397013,-4.81051
66,Ben Lui NW Top,Stirling,1127,56.398011,-4.81209
67,Ben Oss,Stirling,1029,56.389272,-4.775488
68,Beinn Ime,Argyll and Bute,1011,56.23682,-4.817159
69,Beinn Dubhchraig,Stirling,978,56.391304,-4.743194
70,Beinn Bhuidhe,Argyll and Bute,948.5,56.326662,-4.906722
71,Ben Vorlich,Argyll and Bute,943,56.27403,-4.755047
72,Ben Oss North Top,Stirling,941,56.394164,-4.770577
73,Ben Vorlich North Top,Argyll and Bute,931,56.278801,-4.755923
74,Beinn Narnain,Argyll and Bute,927,56.220947,-4.789002
75,Beinn a'Chleibh,Argyll and Bute,916.3,56.390231,-4.835632
76,Ben Vane,Argyll and Bute,915.76,56.249786,-4.781639
77,Beinn Bhuidhe East Top,Argyll and Bute,903,56.332282,-4.891698
78,Beinn Chorranach,Argyll and Bute,888,56.245838,-4.819357
79,The Cobbler,Argyll and Bute,884,56.213037,-4.808042
80,Beinn Chuirn,Argyll and Bute,880,56.423887,-4.789867
81,Beinn Luibhean,Argyll and Bute,858,56.231249,-4.836341
82,Stob Coire Creagach,Argyll and Bute,817,56.2577,-4.857968
83,Meall an Fhudair,Argyll and Bute,764,56.333881,-4.798858
84,Meall nan Gabhar,Argyll and Bute,744,56.375523,-4.85848
86,Beinn Damhain,Argyll and Bute,684,56.316818,-4.779041
87,Meall Odhar,Stirling,656,56.430037,-4.76167
88,Fiarach,Stirling,652.2,56.398537,-4.683429
89,Beinn Bhalgairean,Argyll and Bute,636.8,56.374992,-4.912121
90,Beinn Ghlas,Argyll and Bute,550,56.31819,-5.022766
91,Cruach Tairbeirt,Argyll and Bute,415,56.21539,-4.72256
92,Dun Corr-bhile,Argyll and Bute,322.3,56.250182,-5.062218
93,Doune Hill,Argyll and Bute,734,56.136259,-4.752375
94,Beinn Chaorach,Argyll and Bute,713,56.093338,-4.754424
95,Beinn a'Mhanaich,Argyll and Bute,709,56.112762,-4.785269
96,Beinn Eich,Argyll and Bute,703,56.114637,-4.732345
97,Cruach an t-Sidhein,Argyll and Bute,684,56.12978,-4.776779
98,Beinn Bhreac,Argyll and Bute,680.7,56.163652,-4.704575
99,Mid Hill,Argyll and Bute,657,56.129482,-4.702304
100,Tullich Hill,Argyll and Bute,632,56.167845,-4.749948
101,The Fruin,Argyll and Bute,361,56.046771,-4.769123
102,Ben Bowie,Argyll and Bute,313,56.010052,-4.664305
103,Schiehallion,Perth and Kinross,1083,56.666942,-4.100213
104,Beinn a'Chreachain,Perth and Kinross,1080.6,56.560382,-4.647618
105,Beinn Dorain,Argyll and Bute,1076,56.502888,-4.722142
106,Carn Sasunnaich,Argyll and Bute,1066,56.505945,-4.723248
107,Carn Mairg,Perth and Kinross,1042,56.634662,-4.14561
108,Beinn Achaladair,Argyll and Bute,1038.5,56.551887,-4.694525
109,Carn Gorm,Perth and Kinross,1029,56.622519,-4.226052
110,Meall Liath,Perth and Kinross,1012,56.634511,-4.132442
111,Meall a'Bharr,Perth and Kinross,1004,56.636858,-4.17287
112,Beinn an Dothaidh,Argyll and Bute,1004,56.530113,-4.713947
113,Beinn Achaladair South Top,Argyll and Bute,1003.6,56.541123,-4.697696
114,Beinn an Dothaidh West Top,Argyll and Bute,1000,56.530699,-4.722056
115,Meall na Aighean,Perth and Kinross,981,56.620618,-4.12874
116,Meall Buidhe,Argyll and Bute,977.1,56.557811,-4.670321
117,Meall na Aighean West Top,Perth and Kinross,974,56.618655,-4.135296
118,Meall Garbh,Perth and Kinross,968,56.637372,-4.207456
120,Stuchd an Lochain,Perth and Kinross,960,56.570907,-4.470619
121,Beinn a'Chreachain North Top,Argyll and Bute,959.9,56.568066,-4.641318
122,Beinn Mhanach,Perth and Kinross,953,56.53404,-4.646059
123,Meall Buidhe,Perth and Kinross,932,56.61724,-4.448608
124,Sron Chona Choirein,Perth and Kinross,927,56.568681,-4.453657
125,An Sgorr,Perth and Kinross,924,56.630626,-4.217432
126,Beinn a'Chuirn,Argyll and Bute,923,56.531624,-4.668237
127,Meall Luaidhe,Perth and Kinross,919,56.63058,-4.19251
128,Meall Buidhe SE Top,Perth and Kinross,917,56.608283,-4.444362
129,Garbh Mheall,Perth and Kinross,912,56.62295,-4.445701
130,Meall Buidhe,Argyll and Bute,908.2,56.570153,-4.562
131,Meall na Aighean East Top,Perth and Kinross,904,56.61942,-4.110366
132,Cam Chreag,Perth and Kinross,862,56.611086,-4.385627
133,Sron a'Choire Chnapanich,Perth and Kinross,837,56.574164,-4.514792
134,Beinn Dearg,Perth and Kinross,830,56.618921,-4.268971
135,Meall Tairneachan,Perth and Kinross,787,56.665895,-3.947405
136,Farragon Hill,Perth and Kinross,782.3,56.675063,-3.894208
137,Meall a'Mhuic,Perth and Kinross,745,56.627431,-4.317252
138,Leagag,Perth and Kinross,601,56.653499,-4.417577
139,Dun Coillich,Perth and Kinross,572,56.658181,-4.020364
140,Meall Chomraidh,Perth and Kinross,466.2,56.668141,-4.475561
141,Ben Lawers,Perth and Kinross,1214,56.544922,-4.22086
142,An Stuc,Perth and Kinross,1117,56.560093,-4.216258
143,Meall Garbh,Perth and Kinross,1123,56.566122,-4.207707
144,Beinn Ghlas,Perth and Kinross,1103,56.536005,-4.236977
145,Beinn Sheasgarnaich,Perth and Kinross,1077.4,56.510272,-4.579218
146,Meall Corranaich,Perth and Kinross,1069,56.540946,-4.253469
147,Creag an Fhithich,Perth and Kinross,1047,56.552337,-4.221262
148,Creag Mhor,Perth and Kinross,1047,56.48951,-4.614021
149,Meall nan Tarmachan,Perth and Kinross,1043.5,56.521655,-4.301343
150,Meall Ghaordaidh,Perth and Kinross,1039.8,56.525809,-4.416654
151,Meall Garbh,Perth and Kinross,1026.7,56.515534,-4.312042
152,Ben Challum,Stirling,1025,56.454565,-4.619183
153,Stob an Fhir-Bhogha,Perth and Kinross,1029,56.500309,-4.582458
154,Meall Greigh,Perth and Kinross,1001,56.567426,-4.159543
155,Beinn nan Eachan East Top,Perth and Kinross,951.4,56.515862,-4.319058
156,Beinn nan Eachan,Stirling,1000.1,56.515574,-4.325293
157,Ben Challum South Top,Stirling,998,56.448669,-4.619589
158,Meall Glas,Stirling,959,56.455712,-4.546821
159,Stob nan Clach,Perth and Kinross,956,56.481012,-4.620616
160,Beinn Sheasgarnaich North Top,Perth and Kinross,948.8,56.517809,-4.566789
161,Beinn Cheathaich,Stirling,937,56.46032,-4.526708
162,Sron dha-Murchdi,Perth and Kinross,935,56.534482,-4.260046
163,Meall a'Choire Leith,Perth and Kinross,925.5,56.566312,-4.259625
164,Meall nan Tarmachan SE Top,Perth and Kinross,921.5,56.517407,-4.294459
165,Sgiath Chuil,Stirling,920,56.453149,-4.495653
166,Meall a'Churain,Stirling,917.2,56.459329,-4.496237
167,Creag na Caillich,Stirling,914.3,56.509326,-4.336889
168,Beinn nan Oighreag,Perth and Kinross,909.6,56.540091,-4.373237
169,Beinn Odhar,Argyll and Bute,901,56.467652,-4.700459
170,Beinn a'Chaisteil,Argyll and Bute,886,56.490614,-4.686104
171,Cam Chreag,Argyll and Bute,884,56.476037,-4.639096
172,Beinn nan Imirean,Stirling,849,56.44413,-4.565842
173,Beinn Chaorach,Argyll and Bute,818,56.458902,-4.664919
174,Beinn nam Fuaran,Argyll and Bute,806,56.507156,-4.664648
175,Meall nan Subh,Perth and Kinross,806,56.524497,-4.503808
176,Meall nam Maigheach,Perth and Kinross,778.9,56.562874,-4.302495
177,Drummond Hill,Perth and Kinross,460,56.584613,-4.037378
178,Aonach Eagach - Sgorr nam Fiannaidh,Highland,967,56.679387,-5.037143
179,Aonach Eagach - Meall Dearg,Highland,952.2,56.68072,-5.003271
180,Am Bodach,Highland,941.8,56.677903,-4.991486
181,Stob Coire Leith,Highland,940,56.681382,-5.022753
182,Meall Dearg East Top,Highland,922.9,56.679451,-5.000797
183,A'Chailleach,Highland,901.9,56.678051,-4.957485
184,Aonach Eagach West Top,Highland,904.6,56.679714,-5.015895
185,Garbh Bheinn,Highland,867,56.696584,-4.991428
186,Beinn a'Chrulaiste,Highland,857,56.668905,-4.863529
187,Pap of Glencoe,Highland,742,56.688824,-5.062895
188,Stob na Cruaiche,Highland,739,56.676925,-4.672662
189,Leathad Mor,Highland,547,56.622896,-4.644678
190,Glas Bheinn,Argyll and Bute,501,56.587861,-4.726247
191,Bidean nam Bian,Highland,1149.4,56.642768,-5.029335
192,Stob Coire nan Lochan,Highland,1115.5,56.648848,-5.021795
193,Stob Coire nam Beith,Highland,1106.8,56.646082,-5.036829
194,Stob Coire Sgreamhach,Highland,1072,56.638322,-5.010285
195,Beinn a'Bheithir - Sgorr Dhearg,Highland,1024,56.653921,-5.17151
196,Buachaille Etive Mor - Stob Dearg,Highland,1021.4,56.646229,-4.900336
197,Stob na Doire,Highland,1010.4,56.636834,-4.924237
198,Beinn a'Bheithir - Sgorr Dhonuill,Highland,1001,56.650499,-5.197757
199,Sgor na h-Ulaidh,Highland,994,56.619813,-5.080078
200,Stob an Fhuarain,Highland,968,56.624796,-5.069053
201,Beinn Fhionnlaidh,Argyll and Bute,959,56.600979,-5.104733
202,Buachaille Etive Beag - Stob Dubh,Highland,958,56.63815,-4.970746
203,Buachaille Etive Mor - Stob na Broige,Highland,953.4,56.62988,-4.951151
204,Beinn Fhada,Highland,952,56.64202,-5.002732
205,Sgorr Bhan,Highland,947,56.656002,-5.16217
206,Stob Coire Altruim,Highland,938.7,56.634371,-4.941031
207,Beinn Sgulaird,Argyll and Bute,937,56.566232,-5.170365
208,Beinn Fhada NE Top,Highland,931,56.644559,-4.995446
209,Buachaille Etive Beag - Stob Coire Raineach,Highland,925,56.649938,-4.951686
210,Beinn Sgulaird North Top,Argyll and Bute,909,56.568032,-5.166739
211,Beinn Maol Chaluim,Highland,907,56.627844,-5.041952
212,Fraochaidh,Argyll and Bute,879,56.615678,-5.213625
213,Beinn Trilleachan,Argyll and Bute,840,56.547978,-5.114433
214,Creach Bheinn,Argyll and Bute,810,56.530492,-5.215023
215,Meall Lighiche,Highland,772,56.628471,-5.107497
216,Mam Hael,Argyll and Bute,726,56.517752,-5.238596
217,Beinn Mheadhonach,Argyll and Bute,715,56.482376,-5.217221
218,Beinn Molurgainn,Argyll and Bute,690,56.510851,-5.220171
219,Meall Mor,Highland,676,56.656421,-5.091487
220,Sgorr a'Choise,Highland,663,56.648992,-5.126173
221,Meall Ban,Argyll and Bute,654,56.597867,-5.265123
222,Beinn Mheadhonach,Argyll and Bute,589,56.543422,-5.150379
223,Beinn Duirinnis,Argyll and Bute,555,56.463336,-5.213774
224,An Grianan,Argyll and Bute,549,56.582778,-5.135769
225,Beinn Churalain,Argyll and Bute,549,56.563951,-5.272195
226,Beinn Donn,Argyll and Bute,473,56.576881,-5.320889
227,Beinn Sgluich,Argyll and Bute,466,56.608857,-5.314879
228,Na Maoilean,Argyll and Bute,352.6,56.483365,-5.289743
229,Beinn Lora,Argyll and Bute,308,56.485676,-5.38083
230,Ardsheal Hill,Highland,263,56.660324,-5.272779
231,Airds Hill,Argyll and Bute,181,56.558392,-5.377111
232,Ben Cruachan,Argyll and Bute,1127,56.426839,-5.131828
233,Meall a'Bhuiridh,Highland,1108,56.612218,-4.852078
234,Stob Dearg,Argyll and Bute,1103.1,56.42899,-5.143783
235,Creise,Highland,1099.8,56.614449,-4.871979
236,Clach Leathad,Highland,1098.9,56.602628,-4.868196
237,Stob Ghabhar,Argyll and Bute,1090,56.568103,-4.882099
238,Ben Starav,Highland,1078,56.538939,-5.049798
240,Mam Coire Easain,Highland,1070,56.608642,-4.872434
241,Stob Coir' an Albannaich,Argyll and Bute,1044,56.554921,-4.97981
242,Stob Coire Dheirg,Argyll and Bute,1028,56.538722,-5.040686
243,Drochaid Ghlas,Argyll and Bute,1024.3,56.43007,-5.109884
244,Stob Daimh,Argyll and Bute,999.2,56.431327,-5.091319
245,Glas Bheinn Mhor,Argyll and Bute,997,56.542434,-5.005236
246,Stob a'Ghlais Choire,Highland,995.5,56.623267,-4.870399
247,Aonach Eagach,Argyll and Bute,1000,56.566901,-4.87346
248,Sron a'Ghearrain,Argyll and Bute,990,56.569067,-4.89707
249,Beinn Eunaich,Argyll and Bute,989,56.450352,-5.026639
250,Stob Garbh,Argyll and Bute,981.7,56.425894,-5.089645
251,Beinn a'Chochuill,Argyll and Bute,980,56.44979,-5.068536
252,Sron nan Giubhas,Highland,976,56.574154,-4.882022
253,Sron An Isean,Argyll and Bute,966.6,56.434081,-5.084338
254,Beinn nan Aighenan,Argyll and Bute,960,56.520221,-5.011233
255,Stob a'Choire Odhair,Argyll and Bute,945,56.573308,-4.838302
256,Stob a'Bhruaich Leith,Argyll and Bute,941,56.571503,-4.917431
257,Meall Cruidh,Argyll and Bute,930,56.528722,-5.043446
258,Meall nan Eun,Argyll and Bute,928,56.561177,-4.942893
259,Stob an Duine Ruaidh,Argyll and Bute,918,56.523492,-5.050329
260,Meall Cuanail,Argyll and Bute,920.2,56.418682,-5.130914
261,Meall nan Each,Argyll and Bute,906,56.43392,-5.153267
262,Beinn a'Bhuiridh,Argyll and Bute,897,56.408911,-5.09044
263,Stob Dubh,Highland,883,56.595405,-4.988114
264,Beinn Mhic Chasgaig,Highland,864,56.610061,-4.899477
265,Beinn Udlaidh,Argyll and Bute,840,56.458886,-4.791931
266,Beinn Bhreac-liath,Argyll and Bute,802,56.466716,-4.756524
267,Beinn Mhic-Mhonaidh,Argyll and Bute,796,56.473069,-4.909741
268,Beinn nan Lus,Argyll and Bute,709,56.492998,-5.037967
269,Meall Garbh,Argyll and Bute,701,56.486703,-4.976877
270,Beinn Suidhe,Argyll and Bute,676,56.518386,-4.90837
271,Meall Tairbh,Argyll and Bute,665,56.497742,-4.843068
272,Beinn Donachain,Argyll and Bute,650,56.442585,-4.923232
273,Ben Inverveigh,Argyll and Bute,639,56.504002,-4.810493
274,Beinn na Sroine,Argyll and Bute,636,56.419555,-4.864734
275,Meall Buidhe,Argyll and Bute,624,56.494944,-4.953245
276,Beinn a'Chuirn,Argyll and Bute,569,56.494071,-4.897651
277,Meall Mor,Argyll and Bute,492,56.585271,-4.764582
278,Ben Nevis,Highland,1344.5,56.796849,-5.003525
279,Aonach Beag,Highland,1234,56.799998,-4.954121
281,Aonach Mor,Highland,1221,56.812932,-4.961744
282,Carn Mor Dearg,Highland,1220,56.805246,-4.986616
284,Carn Dearg Meadhonach,Highland,1179,56.809797,-4.989501
285,Stob Choire Claurigh,Highland,1177,56.823786,-4.849624
286,Stob Choire Claurigh North Top,Highland,1121,56.826673,-4.849775
287,Binnein Mor,Highland,1130,56.754358,-4.925795
288,Stob Coire na Ceannain,Highland,1123,56.830383,-4.840551
289,Stob Coire an Laoigh,Highland,1116,56.810877,-4.884891
290,Stob Coire Easain,Highland,1115,56.81819,-4.77371
291,Caisteal,Highland,1106,56.814777,-4.874047
292,Stob a'Choire Mheadhoin,Highland,1105,56.823693,-4.7602
293,Stob a'Choire Leith,Highland,1105,56.821662,-4.858003
294,Stob Choire Bhealach,Highland,1100,56.794785,-4.945629
295,Sgurr a'Mhaim,Highland,1099,56.75592,-5.00369
296,Sgurr Choinnich Mor,Highland,1094,56.800431,-4.903943
297,Stob Coire Easain,Highland,1080,56.812523,-4.893359
298,Stob Coire Cath na Sine,Highland,1079,56.816014,-4.8648
299,Stob an Chul Choire,Highland,1068,56.81464,-4.945375
300,Binnein Mor South Top,Highland,1062,56.747581,-4.927207
301,Na Gruagaichean,Highland,1054.2,56.743687,-4.939875
302,Na Gruagaichean NW Top,Highland,1038.8,56.745763,-4.943342
303,Am Bodach,Highland,1031.8,56.741727,-4.983393
305,Sgurr Eilde Mor,Highland,1010,56.750024,-4.895453
306,Beinn na Socaich,Highland,1007,56.819293,-4.891357
307,Carn Beag Dearg,Highland,995,56.817799,-4.998244
308,Sgor an Iubhair,Highland,999.7,56.745012,-5.00191
309,Stob Ban,Highland,999,56.743697,-5.030343
310,Stob Choire a'Mhail,Highland,990,56.749335,-5.00539
311,Stob Coire an Fhir Dhuibh,Highland,986,56.819361,-4.936928
312,An Gearanach,Highland,981.4,56.759143,-4.966203
313,Stob Coire a'Chairn,Highland,981.4,56.750744,-4.969025
314,Stob Ban,Highland,977,56.810647,-4.840876
315,An Garbhanach,Highland,974.9,56.755396,-4.965146
316,Sgurr a'Bhuic,Highland,963,56.788311,-4.941672
317,Sgurr Choinnich Beag,Highland,963,56.796694,-4.916153
318,Stob Coire na Gaibhre,Highland,958,56.84023,-4.852564
319,Sgor Eilde Beag,Highland,955.7,56.74522,-4.912907
320,Binnein Beag,Highland,943,56.76699,-4.911065
321,Mullach nan Coirean,Highland,939,56.749867,-5.072381
322,Tom na Sroine,Highland,918,56.827434,-4.938757
323,Mullach nan Coirean SE Top,Highland,917,56.743308,-5.057286
324,Mullach nan Coirean East Top,Highland,910,56.74468,-5.047517
325,Meall a'Chaorainn,Highland,910,56.745006,-5.083959
326,Stob Coire a'Chairn South Top,Highland,909,56.747106,-4.975421
327,Leum Uilleim,Highland,906.4,56.738929,-4.730754
328,Cruach Innse,Highland,857,56.84684,-4.821936
329,Sgurr Innse,Highland,809,56.833314,-4.80398
330,Mam na Gualainn,Highland,796,56.716426,-5.081585
331,Glas Bheinn,Highland,792,56.736083,-4.847886
332,Cnap Cruinn,Highland,742,56.857671,-4.785131
333,Meall Mor,Highland,721,56.794678,-4.816982
334,Meall an t-Suidhe,Highland,711,56.81025,-5.050078
335,Beinn na Cloiche,Highland,646,56.743792,-4.806432
336,Meall a'Bhainne,Highland,633,56.757411,-4.772528
337,Creag Ghuanach,Highland,621,56.781438,-4.784209
338,Tom Meadhoin,Highland,621,56.71135,-5.126542
339,Beinn na Gucaig,Highland,616,56.739262,-5.168838
340,Meall na Duibhe,Highland,571.4,56.718763,-4.899613
341,Doire Ban,Highland,566,56.731854,-5.122963
342,Bidein Bad na h-Iolaire,Highland,528,56.79049,-5.087972
343,Druim na h-Earba,Highland,288,56.794074,-5.128432
344,Cruim Leacainn,Highland,231.1,56.881754,-5.010477
345,Ben Alder,Highland,1148,56.813796,-4.465089
346,Geal-charn,Highland,1132,56.837836,-4.509727
347,Aonach Beag,Highland,1115.7,56.833496,-4.529181
348,Beinn Eibhinn,Highland,1103.2,56.825254,-4.542082
349,Beinn a'Chlachair,Highland,1087,56.869525,-4.509684
350,Geal Charn,Highland,1049,56.897763,-4.457236
351,Chno Dearg,Highland,1046,56.830086,-4.660831
352,Carn Dearg,Highland,1034,56.855241,-4.454709
353,Sgor Iutharn,Highland,1028,56.836293,-4.477193
354,Beinn Bheoil,Highland,1019,56.813276,-4.430646
355,Sron Garbh,Highland,1023,56.896973,-4.448957
356,Stob Coire Sgriodain,Highland,979,56.831736,-4.694917
358,Meall Garbh,Highland,976,56.817669,-4.669029
359,Beinn a'Chlachair East Top,Highland,977,56.877771,-4.48473
360,Stob Coire Sgriodain South Top,Highland,958,56.827378,-4.69026
361,Sgor Gaibhre,Highland,955,56.772544,-4.546498
362,Sron Coire na h-Iolaire,Highland,956,56.801603,-4.436606
363,Carn Dearg,Highland,941,56.759931,-4.589888
364,Beinn na Lap,Highland,935,56.78939,-4.659994
365,Sgor Choinnich,Highland,929,56.780367,-4.548943
366,Meall Glas Choire,Highland,924,56.820156,-4.562889
367,Creag Pitridh,Highland,924,56.899713,-4.484955
368,Mullach Coire nan Nead,Highland,922,56.825744,-4.573893
369,Diollaid a'Chairn,Highland,925,56.848794,-4.482168
370,The Fara,Highland,911.4,56.928372,-4.304853
371,The Fara South Top,Highland,904,56.916554,-4.30884
372,Beinn a'Chumhainn,Highland,901.9,56.805321,-4.519511
373,Leacann na Sguabaich,Highland,901,56.907285,-4.323068
374,Beinn Pharlagain,Perth and Kinross,868,56.743606,-4.538978
375,Binnein Shuas,Highland,747,56.909846,-4.52591
376,Beinn Eilde,Highland,674,56.933896,-4.363148
377,Binnein Shios,Highland,667,56.938059,-4.479549
378,Meall nan Eagan,Highland,658,56.957105,-4.309095
379,Cruban Beag,Highland,590,57.003995,-4.193758
380,Creag na Doire Duibhe,Highland,571,56.985618,-4.280738
381,Meall Luidh Mor,Highland,514,56.881732,-4.599608
382,Sron Smeur,Perth and Kinross,513,56.707494,-4.530629
383,Beinn Udlamain,Highland,1011,56.835472,-4.329913
384,Sgairneach Mhor,Perth and Kinross,991,56.828447,-4.297792
386,A'Mharconaich,Highland,975,56.856993,-4.290668
388,Meall Chuaich,Highland,951,56.963851,-4.112552
389,Carn na Caim,Highland,940.8,56.911739,-4.174478
390,A'Bhuidheanach Bheag,Highland,936.1,56.870399,-4.198839
391,Glas Mheall Mor,Perth and Kinross,927.9,56.865197,-4.165819
392,Geal-charn,Highland,917.1,56.874433,-4.304519
393,Meall a'Chaorainn,Highland,916,56.869972,-4.222918
394,Carn na Caim South Top,Highland,914.6,56.898238,-4.195254
395,Beinn a'Chuallaich,Perth and Kinross,892,56.729024,-4.151523
396,Stob an Aonaich Mhoir,Perth and Kinross,855,56.793293,-4.396092
397,Beinn Mholach,Perth and Kinross,841.7,56.759525,-4.3121
398,Glas Mheall Mor,Perth and Kinross,829.3,56.775052,-4.352551
399,An Dun,Highland,827,56.898097,-4.107425
400,An Dun,Highland,827,56.894806,-4.108636
401,The Sow of Atholl,Perth and Kinross,803,56.838121,-4.25515
402,Meall na Leitreach,Perth and Kinross,777.3,56.804175,-4.227884
403,Creag Ruadh,Highland,658,56.966386,-4.163957
404,Creag a'Mhadaidh,Perth and Kinross,612,56.756739,-4.234726
405,Drumcroy Hill,Perth and Kinross,512,56.741272,-4.058998
406,Beinn Dearg,Perth and Kinross,1008.7,56.877346,-3.883719
407,An Sgarsoch,Aberdeenshire,1006,56.931928,-3.754367
408,Carn an Fhidhleir,Aberdeenshire,994,56.935919,-3.801661
409,Carn a'Chlamain,Perth and Kinross,963.5,56.860968,-3.779629
410,Carn a'Chlamain North Top,Perth and Kinross,952,56.863886,-3.783349
411,Druim Sgarsoch,Aberdeenshire,954,56.931614,-3.735187
412,Beinn Gharbh,Perth and Kinross,930.4,56.888602,-3.886895
413,Leathad an Taobhain,Highland,911.7,56.948652,-3.93864
414,Beinn Bhreac,Perth and Kinross,912.44,56.916127,-3.86034
415,Beinn Mheadhonach,Perth and Kinross,900.8,56.860948,-3.838457
416,A'Chaoirnich,Highland,875,56.90042,-4.078177
417,Carn Dearg Mor,Highland,857,56.996795,-3.938665
418,Carn an Fhidhleir Lorgaidh,Highland,848.6,56.964385,-3.882731
419,Meall Odhar a'Chire,Perth and Kinross,834,56.883086,-3.976334
420,Meallach Mhor,Highland,769,56.9928,-4.01522
421,Beinn a'Ghlo - Carn nan Gabhar,Perth and Kinross,1121.9,56.839837,-3.688006
422,Beinn a'Ghlo - Braigh Coire Chruinn-bhalgain,Perth and Kinross,1070,56.831083,-3.729505
423,Airgiod Bheinn,Perth and Kinross,1061.7,56.827794,-3.702754
424,Glas Tulaichean,Perth and Kinross,1051,56.865766,-3.55818
425,Beinn Iutharn Mhor,Aberdeenshire,1045,56.894994,-3.568229
426,Carn an Righ,Perth and Kinross,1029,56.876565,-3.595272
427,Mam nan Carn,Perth and Kinross,986,56.883272,-3.562257
428,Carn a'Gheoidh,Aberdeenshire,975,56.873065,-3.466616
429,Beinn a'Ghlo - Carn Liath,Perth and Kinross,976,56.80777,-3.744106
430,Beinn Iutharn Bheag,Aberdeenshire,953,56.893983,-3.536059
431,Carn nan Gabhar North Top,Perth and Kinross,946.9,56.851279,-3.683716
432,Carn Bhac,Aberdeenshire,945.1,56.930541,-3.56088
433,An Socach,Aberdeenshire,944,56.902295,-3.513148
434,An Socach East Top,Aberdeenshire,938,56.907745,-3.481213
435,The Cairnwell,Aberdeenshire,933,56.879502,-3.421198
436,Carn Bhac SW Top,Aberdeenshire,918.1,56.926207,-3.576867
437,Carn nan Sac,Aberdeenshire,920,56.875594,-3.446286
438,Carn Aosda,Aberdeenshire,915.3,56.895696,-3.423274
439,Carn Bhinnein,Perth and Kinross,917,56.868998,-3.492198
440,Carn a'Bhutha,Perth and Kinross,905.9,56.9192,-3.588811
441,Ben Vuirich,Perth and Kinross,903,56.810737,-3.644008
442,Sgor Mor,Aberdeenshire,887,56.9253,-3.455573
443,Meall a'Choire Bhuidhe,Perth and Kinross,868,56.820984,-3.538363
444,Morrone,Aberdeenshire,859,56.980852,-3.429599
445,Ben Vrackie,Perth and Kinross,842,56.748956,-3.717273
446,Ben Gulabin,Perth and Kinross,806,56.83265,-3.475886
447,Meall Uaine,Perth and Kinross,794,56.789326,-3.457453
448,Blath Bhalg,Perth and Kinross,641,56.731393,-3.604384
449,Creag an t-Sithein,Perth and Kinross,634.4,56.773948,-3.585775
450,Creag nam Mial,Perth and Kinross,563,56.669205,-3.545536
451,Creag nam Brataichean,Perth and Kinross,536.7,56.735206,-3.449997
452,Meall Dail Min,Perth and Kinross,536,56.801079,-3.815947
453,Deuchary Hill,Perth and Kinross,511,56.618568,-3.570325
454,Hill of Persie,Perth and Kinross,447,56.687967,-3.434219
455,Craig a Barns,Perth and Kinross,360,56.584735,-3.605277
456,Newtyle Hill,Perth and Kinross,317,56.559312,-3.54722
457,Lochnagar - Cac Carn Beag,Aberdeenshire,1156,56.960254,-3.24526
458,Cac Carn Mor,Aberdeenshire,1150,56.956236,-3.242758
459,Carn a'Choire Bhoidheach,Aberdeenshire,1109.9,56.945773,-3.272707
460,Cuidhe Crom,Aberdeenshire,1083,56.949622,-3.218223
461,Glas Maol,Angus,1068,56.873059,-3.368236
462,Creag a'Ghlas-uillt,Aberdeenshire,1068,56.943172,-3.247354
463,Cairn of Claise,Aberdeenshire,1064,56.894178,-3.338654
464,Top of Eagle's Rock,Aberdeenshire,1051,56.939632,-3.255404
465,Carn an t-Sagairt Mor,Aberdeenshire,1047,56.942973,-3.303227
466,Carn an t-Sagairt Beag,Aberdeenshire,1044.4,56.948354,-3.289457
467,Carn an Tuirc,Aberdeenshire,1019,56.908283,-3.357125
468,Cairn Bannoch,Aberdeenshire,1012,56.927719,-3.278402
469,Fafernie,Aberdeenshire,1000,56.925451,-3.291058
470,Broad Cairn,Aberdeenshire,998,56.919148,-3.249066
471,Cairn of Gowal,Aberdeenshire,991,56.922799,-3.273116
472,Creag Leacach,Angus,988.2,56.854631,-3.387751
473,Creag an Dubh-loch,Aberdeenshire,983,56.924712,-3.261681
475,Meikle Pap,Aberdeenshire,980,56.959895,-3.218722
476,Meall Coire na Saobhaidhe,Aberdeenshire,974,56.970625,-3.247597
477,Little Glas Maol,Angus,973,56.867704,-3.353407
478,Druim Mor,Angus,961,56.878603,-3.330696
479,Tolmount,Aberdeenshire,958,56.904733,-3.297946
480,Tom Buidhe,Angus,957,56.893615,-3.292356
481,Little Pap,Aberdeenshire,956,56.945314,-3.210356
482,Creag Leachdach,Aberdeenshire,957,56.918937,-3.299268
483,Driesh,Angus,947,56.848003,-3.196523
484,Creag Leacach SW Top,Angus,943.7,56.851149,-3.396264
485,Mount Keen,Aberdeenshire,939,56.969751,-2.973622
486,Mayar,Angus,928,56.848936,-3.246316
487,Craig of Gowal,Angus,927,56.91302,-3.262929
488,Meall Odhar,Aberdeenshire,922,56.879846,-3.386601
489,Crow Craigies,Angus,920,56.903555,-3.278956
490,Finalty Hill,Angus,905,56.860427,-3.293147
491,Ben Tirran,Angus,896,56.858703,-3.029169
492,Conachcraig,Aberdeenshire,865,56.964265,-3.186563
493,Hill of Strone,Angus,850,56.842063,-3.168737
494,Creag nan Gabhar,Aberdeenshire,834,56.940515,-3.391006
495,Monamenach,Angus,807,56.820186,-3.351546
496,Mount Battock,Aberdeenshire,778,56.949266,-2.741962
497,Mount Blair,Angus,744,56.750869,-3.363104
498,Badandun Hill,Angus,740,56.795693,-3.29917
499,Hunt Hill,Angus,705,56.911948,-3.019778
500,Duchray Hill,Angus,702,56.789265,-3.374155
501,Hill of Wirren,Angus,678,56.854382,-2.784029
502,Cat Law,Angus,671,56.736291,-3.114994
503,Corwharn,Angus,609.1,56.772045,-3.165519
504,The Coyles of Muick,Aberdeenshire,601,57.005595,-3.106821
505,Crock,Angus,553.9,56.754443,-3.267063
506,Meall Mor,Angus,551,56.726518,-3.35258
507,Kerloch,Aberdeenshire,534,56.981161,-2.500912
508,Hare Cairn,Angus,516,56.746558,-3.240798
509,Creigh Hill,Angus,498,56.720222,-3.193099
510,Creag Ghiubhais,Aberdeenshire,486,57.045127,-3.13478
511,Balduff Hill,Perth and Kinross,425,56.667698,-3.267764
512,Strathfinella Hill,Aberdeenshire,414,56.89896,-2.50554
513,Mile Hill,Angus,410,56.700908,-3.126197
514,Craiglea Hill,Angus,388,56.696506,-3.236113
515,Cairn-mon-earn,Aberdeenshire,378,57.017958,-2.359621
516,Hill of Goauch,Aberdeenshire,337.1,57.037459,-2.556801
517,Hill of Garvock,Aberdeenshire,277,56.813371,-2.449336
518,Ben Macdui,Aberdeenshire,1309,57.070368,-3.669099
519,Braeriach,Aberdeenshire,1296,57.078298,-3.728389
520,Ben Macdui North Top,Aberdeenshire,1295,57.076003,-3.665623
521,Cairn Toul,Aberdeenshire,1291,57.054397,-3.710773
522,Carn na Criche,Aberdeenshire,1265,57.063181,-3.750644
523,Sgor an Lochain Uaine,Aberdeenshire,1258,57.058369,-3.725797
524,Stob Coire Sputan Dearg,Aberdeenshire,1249,57.066651,-3.654005
525,Cairn Gorm,Highland,1244.8,57.116714,-3.644477
526,Stob Coire an Lochain,Aberdeenshire,1235,57.076303,-3.749728
527,Cairn Lochan,Highland,1216,57.102734,-3.676959
528,Stob Coire an t-Saighdeir,Aberdeenshire,1213,57.046598,-3.711387
529,Beinn a'Bhuird,Aberdeenshire,1197,57.08759,-3.499366
530,Sron na Lairige,Aberdeenshire,1184,57.084806,-3.710457
531,Beinn Mheadhoin,Moray,1182.9,57.095849,-3.611464
532,Beinn a'Bhuird South Top,Aberdeenshire,1179,57.069434,-3.49915
534,Stob Coire an t-Sneachda,Highland,1176,57.106822,-3.658767
535,Cnap a'Chleirich,Aberdeenshire,1174,57.091401,-3.474253
536,Ben Avon - Leabaidh an Daimh Bhuidhe,Aberdeenshire,1171,57.099347,-3.434422
537,Beinn Mheadhoin SW Top,Moray,1163,57.090951,-3.621319
538,Beinn Bhrotain,Aberdeenshire,1157,57.009868,-3.723813
539,Derry Cairngorm,Aberdeenshire,1155,57.062801,-3.622004
540,Cnap Coire na Spreidhe,Highland,1150,57.12449,-3.631061
541,A'Chioch,Aberdeenshire,1151,57.069532,-3.490907
542,Fiacaill a'Choire Chais,Highland,1141,57.115923,-3.654714
543,Ben Avon SW Top,Aberdeenshire,1138,57.094879,-3.444103
544,Mullach Lochan nan Gabhar,Aberdeenshire,1122,57.102317,-3.415799
545,Stuc Gharbh Mhor,Aberdeenshire,1120,57.094822,-3.408862
546,Carn Etchachan,Aberdeenshire,1120,57.088321,-3.646603
547,Clach Choutsaich,Aberdeenshire,1119,57.099591,-3.415332
548,Sgor Gaoith,Highland,1118,57.068561,-3.810856
549,Monadh Mor,Aberdeenshire,1113,57.02679,-3.750102
551,Sgoran Dubh Mor,Highland,1111,57.080415,-3.808167
552,Sron Riach,Aberdeenshire,1113,57.060289,-3.650622
553,Beinn Bhrotain East Top,Aberdeenshire,1108,57.010526,-3.709878
554,Creagan a'Choire Etchachan,Aberdeenshire,1108,57.076937,-3.631514
555,Stob an t'Sluichd,Moray,1107,57.107031,-3.467592
556,Fiacaill Coire an t-Sneachda,Highland,1122,57.109472,-3.671633
557,Bynack More,Highland,1090,57.13822,-3.584716
558,Carn Eas,Aberdeenshire,1089,57.075982,-3.449011
559,Beinn a'Chaorainn,Aberdeenshire,1083,57.093299,-3.577435
560,Fiacaill na Leth-choin,Highland,1083,57.10142,-3.693178
561,Stob Coire Etchachan,Aberdeenshire,1082,57.085417,-3.610764
562,Stob Bac an Fhurain,Moray,1076,57.112488,-3.428232
563,Stob Dubh an Eas Bhig,Aberdeenshire,1061,57.084593,-3.432109
564,Creag an Leth-choin,Highland,1053,57.109393,-3.704869
565,Carn Ban Mor,Highland,1052,57.052556,-3.825279
566,Little Cairngorm,Aberdeenshire,1040,57.055769,-3.616965
567,Carn a'Mhaim,Aberdeenshire,1037,57.036871,-3.6584
568,Sron a'Cha-no,Highland,1028,57.134206,-3.626614
569,Creag an Leth-choin North Top,Highland,1026,57.114409,-3.705744
570,West Meur Gorm Craig,Moray,1023,57.116155,-3.399597
571,Mullach Clach a'Bhlair,Highland,1019,57.011879,-3.841271
572,Beinn a'Chaorainn Bheag,Moray,1017,57.096692,-3.557556
573,A'Choinneach,Highland,1017,57.124176,-3.600338
574,Stacan Dubha,Moray,1014,57.093586,-3.632163
575,The Devil's Point,Aberdeenshire,1004,57.035728,-3.688788
576,Meall Dubhag,Highland,998,57.037409,-3.846588
577,Leth-chreag,Highland,985,57.023645,-3.777599
578,Sgurr an Lochan Uaine,Aberdeenshire,983,57.072673,-3.608941
579,Meall Buidhe,Highland,976,57.079875,-3.830515
580,Diollaid Coire Eindart,Highland,974,57.012367,-3.806472
581,Creag an Dail Mhor,Aberdeenshire,972,57.066765,-3.433296
582,Bynack Beg,Highland,970,57.142305,-3.59413
583,Mullach Clach a'Bhlair North Top,Highland,953,57.027876,-3.828155
584,Big Brae,Moray,942,57.113024,-3.390314
585,Carn Cloich-mhuilinn,Aberdeenshire,942,56.995773,-3.699308
586,East Meur Gorm Craig,Moray,935,57.121059,-3.390087
587,Beinn Bhreac,Aberdeenshire,931,57.055063,-3.553471
588,Beinn Bhreac West Top,Aberdeenshire,927,57.056101,-3.56321
589,Geal-charn,Highland,920,57.09013,-3.843217
590,Tom Dubh,Highland,918,57.035936,-3.778911
591,Druim nam Bo,Highland,918,57.006499,-3.85576
592,Meall Gaineimh,Moray,913.6,57.129341,-3.377974
593,Culardoch,Aberdeenshire,900,57.073355,-3.331871
594,Creag Mhor,Moray,895,57.124246,-3.558416
595,Carn Liath,Aberdeenshire,861.5,57.06204,-3.378652
596,Creag an Dail Bheag,Aberdeenshire,863,57.066716,-3.391294
597,Brown Cow Hill,Aberdeenshire,829,57.124384,-3.288211
598,Geal Charn,Highland,821,57.196016,-3.506737
599,Carn na Drochaide,Aberdeenshire,818,57.027417,-3.439163
600,Sgor Mor,Aberdeenshire,813,57.003153,-3.636334
601,Meall a'Bhuachaille,Highland,810,57.18355,-3.671106
602,Carn Ealasaid,Aberdeenshire,792,57.190245,-3.279515
603,Geallaig Hill,Aberdeenshire,743,57.069283,-3.159515
604,Cnap Chaochan Aitinn,Moray,715,57.172582,-3.414366
605,Carn na Farraidh,Highland,688,57.214914,-3.467782
606,Creag Bhalg,Aberdeenshire,668,57.003309,-3.49688
607,Craig Leek,Aberdeenshire,635,57.020883,-3.344003
608,Meall Alvie,Aberdeenshire,560,57.011752,-3.312936
609,Ord Ban,Highland,428,57.154198,-3.833722
610,Carn Glas-choire,Highland,659,57.339445,-3.843279
611,Carn nan Tri-tighearnan,Highland,615,57.426358,-3.961524
612,Carn na Loine,Highland,549,57.405721,-3.549477
613,Creag Ealraich,Highland,504,57.352435,-3.758043
614,Meall Mor,Highland,492,57.393004,-4.102492
615,Craig Tiribeg,Highland,486,57.403078,-3.689994
616,Beinn Mhor,Highland,471,57.33229,-3.67312
617,Knock of Braemoray,Moray,456,57.455091,-3.648489
618,Brown Muir,Moray,339,57.577816,-3.241598
619,Hill of the Wangie,Moray,319,57.565477,-3.444782
620,Burgiehill,Moray,254,57.584174,-3.511459
621,Carn Dearg,Highland,945.7,57.092261,-4.253246
622,Carn Ban,Highland,942.2,57.099149,-4.259938
623,A'Chailleach,Highland,929.2,57.109564,-4.179285
624,Geal Charn,Highland,926,57.057418,-4.373572
625,Carn Dearg SE Top,Highland,923.6,57.086621,-4.249537
626,Carn Sgulain,Highland,920.3,57.124371,-4.176986
628,Sneachdach Slinnean,Highland,919,57.094567,-4.27597
630,Meall a'Bhothain,Highland,909.9,57.122355,-4.209
631,Gairbeinn,Highland,896,57.051993,-4.539681
632,Corrieyairack Hill,Highland,892,57.060462,-4.590882
633,Carn an Fhreiceadain,Highland,878,57.137355,-4.107357
634,Meall na h-Aisre,Highland,862,57.067424,-4.450362
635,Marg na Craige,Highland,833.5,57.046318,-4.275175
636,Geal-charn Mor,Highland,824,57.186945,-3.926922
637,Carn Dearg,Highland,817,57.031129,-4.720434
638,Carn a'Chuilinn,Highland,817,57.094268,-4.614836
639,Carn na Saobhaidhe,Highland,811,57.198957,-4.320534
640,Carn na Laraiche Maoile,Highland,810,57.169704,-4.343448
641,Carn Easgann Bana,Highland,781,57.122567,-4.504029
642,Carn Dearg,Highland,768,57.015739,-4.707348
643,Creag Dhubh,Highland,756,57.047149,-4.180755
644,Cnoc Fraing,Highland,745,57.203853,-3.97806
645,Creag Liath,Highland,743,57.078497,-4.206125
646,Carn na h-Easgainn,Highland,617,57.361811,-4.089833
647,Beinn Mheadhoin,Highland,556,57.262503,-4.315906
648,Beinn a'Bhacaidh,Highland,555,57.17125,-4.595836
649,Cnoc Thulagain,Highland,530,57.270391,-4.086118
650,Creag a'Chliabhain,Highland,519,57.253615,-4.36227
651,Meall an Tarsaid,Highland,492.3,57.183505,-4.497266
653,Creag Bheag,Highland,487,57.0896,-4.071025
654,Tom Bailgeann,Highland,464,57.333921,-4.346587
655,Stac na Cathaig,Highland,446,57.341387,-4.261275
656,Stac Gorm,Highland,430,57.315815,-4.275664
657,Creag nan Clag,Highland,407,57.324069,-4.330809
658,Creag Meagaidh,Highland,1128,56.952033,-4.602084
659,Creag Meagaidh East Top,Highland,1115,56.952604,-4.592338
660,Puist Coire Ardair,Highland,1071,56.950234,-4.57132
661,Creag Mhor,Highland,1069,56.950911,-4.562847
662,Stob Poite Coire Ardair,Highland,1054,56.964037,-4.585745
663,Beinn a'Chaorainn,Highland,1052,56.928643,-4.653628
664,Stob Poite Coire Ardair East Top,Highland,1050,56.966606,-4.572521
665,Beinn a'Chaorainn South Top,Highland,1049,56.923718,-4.652769
666,Beinn a'Chaorainn North Top,Highland,1043,56.93431,-4.657598
667,Meall Coire Choille-rais,Highland,1028,56.941041,-4.577839
668,Carn Liath,Highland,1006,56.978784,-4.515305
669,Sron a'Choire,Highland,1001,56.955039,-4.553032
670,Sron Coire a'Chriochairein,Highland,993,56.974373,-4.555095
671,An Cearcallach,Highland,993,56.932743,-4.594034
672,Meall an-t-Snaim,Highland,970,56.979012,-4.537168
673,A'Bhuidheanach,Highland,966,56.982433,-4.50119
674,Stob Coire Dubh,Highland,916,56.991724,-4.476615
675,Beinn Teallach,Highland,914.6,56.935928,-4.694757
676,Carn Dearg,Highland,834,56.959813,-4.723327
677,Beinn Iaruinn,Highland,805,56.970146,-4.803152
678,Leana Mhor,Highland,684,56.950304,-4.821777
679,Leana Mhor,Highland,676,56.95178,-4.769041
680,Creag Dhubh,Highland,658,56.902973,-4.7558
681,Creag Ruadh,Highland,622,56.991118,-4.374897
682,Beinn a'Mhonicag,Highland,567,56.928458,-4.815655
683,Gleouraich,Highland,1035,57.097163,-5.238035
684,Sgurr a'Mhaoraich,Highland,1027,57.105573,-5.330434
685,Aonach air Chrith,Highland,1019.5,57.12464,-5.221291
686,The Saddle - Trig Point,Highland,1011.1,57.161822,-5.416621
687,Sgurr an Doire Leathain,Highland,1010,57.136861,-5.28153
688,The Saddle,Highland,1011.4,57.162395,-5.414721
689,Creag Coire na Fiar Bhealaich,Highland,1006,57.095382,-5.225197
690,Sgurr an Lochain,Highland,1004,57.141232,-5.297527
691,Spidean Mialach,Highland,996,57.088964,-5.193614
692,Druim Shionnach,Highland,987,57.126794,-5.182857
693,Maol Chinn-dearg,Highland,980.3,57.12756,-5.252651
694,Spidean Mialach West Top,Highland,977,57.089877,-5.199753
695,Beinn Sgritheall,Highland,974,57.153824,-5.579728
696,The Saddle West Top,Highland,974,57.159594,-5.426038
697,Sgurr na Forcan,Highland,964.6,57.161927,-5.407812
698,The Saddle East Top,Highland,959,57.161694,-5.410735
699,Sgurr a'Mhaoraich Beag,Highland,948,57.106969,-5.341777
700,Creag a'Mhaim,Highland,946,57.120971,-5.160048
701,Sgurr na Sgine,Highland,946,57.147098,-5.396634
702,Sgurr na Sgine NW Top,Highland,942,57.148987,-5.400892
703,Spidean Dhomhuill Bhric,Highland,939,57.160084,-5.437697
704,Druim Shionnach West Top,Highland,938,57.123863,-5.201578
705,Beinn Sgritheall NW Top,Highland,928,57.158001,-5.581737
706,The Saddle North Top,Highland,926,57.168577,-5.417056
707,Sgurr Leac nan Each,Highland,919,57.163241,-5.445172
708,Creag nan Damh,Highland,918,57.147263,-5.334597
709,Beinn Sgritheall East Top,Highland,906,57.15136,-5.56399
710,Sgurr Thionail,Highland,906,57.126862,-5.330695
711,Faochag,Highland,909,57.156104,-5.383415
712,Sgurr Coire na Feinne,Highland,901.8,57.132146,-5.260178
713,Buidhe Bheinn,Highland,885.5,57.127133,-5.366446
714,Am Bathaich,Highland,899,57.114265,-5.324531
715,Buidhe Bheinn West Top,Highland,879,57.124138,-5.377042
716,Sgurr a'Bhac Chaolais,Highland,885.2,57.144675,-5.376325
717,Druim Fiaclach,Highland,869,56.851345,-5.623684
718,Beinn na h-Eaglaise,Highland,805,57.148629,-5.548692
719,Druim nan Cnamh,Highland,789,57.122035,-5.089277
720,Sgurr Mhic Bharraich,Highland,779,57.19958,-5.448675
721,Beinn nan Caorach,Highland,774,57.150469,-5.520434
722,Beinn a'Chapuill,Highland,759,57.17319,-5.582876
723,Druim Fada,Highland,710.7,57.117596,-5.479103
724,Biod an Fhithich,Highland,645.8,57.177536,-5.391772
725,Beinn Clachach,Highland,643,57.140331,-5.495609
726,Beinn a'Chuirn,Highland,603,57.238986,-5.53133
727,Beinn Mhialairigh,Highland,548,57.153685,-5.638889
728,Beinn a'Chaoinich,Highland,410,57.206171,-5.545073
729,Glas Bheinn,Highland,397,57.243314,-5.612072
730,Sgurr na Ciche,Highland,1040,57.013452,-5.456854
731,Ladhar Bheinn,Highland,1020,57.075263,-5.591745
732,Garbh Chioch Mhor,Highland,1013,57.008556,-5.444338
733,Sgurr Mor,Highland,1003,57.028437,-5.354188
734,Garbh Chioch Bheag,Highland,968,57.007209,-5.430225
735,Stob a'Choire Odhair,Highland,960,57.078494,-5.581904
736,Sgurr nan Coireachan,Highland,953,57.007158,-5.40544
737,Meall Buidhe,Highland,946,57.031552,-5.546334
738,Meall Buidhe SE Top,Highland,942,57.029704,-5.540173
739,Luinne Bheinn,Highland,939,57.048325,-5.513607
740,Luinne Bheinn East Top,Highland,936,57.047976,-5.509071
741,Gairich,Highland,919,57.044879,-5.255827
742,Sgurr a'Choire-bheithe,Highland,913.32,57.057215,-5.471305
743,Sgurr an Fhuarain,Highland,901,57.028875,-5.317877
744,Sgurr nan Eugallt,Highland,898,57.087947,-5.422658
745,Sgurr nan Eugallt East Top,Highland,895,57.08466,-5.415965
746,Sgurr Beag,Highland,890,57.019721,-5.363423
747,Ben Aden,Highland,887,57.030736,-5.463143
748,Fraoch Bheinn,Highland,858,56.993482,-5.316898
749,Beinn Bhuidhe,Highland,855,57.010102,-5.589145
750,Aonach Sgoilte,Highland,849,57.064574,-5.564042
751,Sgurr Cos na Breachd-laoidh,Highland,835,56.997429,-5.37999
752,Sgurr Coire Choinnichean,Highland,796,57.047637,-5.643923
753,Beinn na Caillich,Highland,785,57.098269,-5.640339
754,Meall Bhasiter,Highland,718,57.01543,-5.54928
755,Slat Bheinn,Highland,700,57.068164,-5.449072
756,Meall nan Eun,Highland,667,57.090151,-5.461866
757,Druim na Cluain-airighe,Highland,517,57.067143,-5.710454
758,Sron a'Choire Ghairbh,Highland,937,57.007839,-4.928763
759,Meall na Teanga,Highland,918,56.989075,-4.930927
760,Meall Coire Lochain,Highland,907,56.984702,-4.938798
761,Ben Tee,Highland,904,57.032239,-4.900715
762,Meall a'Choire Ghlais,Highland,901,57.018047,-4.934658
763,Sgurr Mhurlagain,Highland,880,56.998469,-5.273676
764,Meall na h-Eilde,Highland,838,57.007047,-4.989603
765,Meall Coire nan Saobhaidh,Highland,826,57.011105,-5.007804
766,Geal Charn,Highland,804,57.002612,-5.037526
767,Meall Dubh,Highland,789,57.127923,-4.900431
768,Sgurr Choinnich,Highland,749,57.007771,-5.084898
769,Glas Bheinn,Highland,732,56.981951,-5.010604
770,Meall Blair,Highland,656,57.006388,-5.167566
771,Burach,Highland,607,57.189425,-4.67736
772,Glas Bheinn,Highland,556,57.030516,-5.076728
773,Gulvain,Highland,987,56.936202,-5.284526
774,Sgurr Thuilm,Highland,963,56.937056,-5.389207
775,Gulvain South Top,Highland,961,56.925892,-5.293368
776,Sgurr nan Coireachan,Highland,956,56.935728,-5.448551
777,Streap,Highland,909,56.923006,-5.375537
778,Beinn Gharbh,Highland,895.3,56.931614,-5.482456
779,Bidein a'Chabair,Highland,867,56.980354,-5.475517
780,Carn Mor,Highland,829,56.962009,-5.450735
781,Beinn an Tuim,Highland,810,56.896866,-5.401597
782,Sgurr an Utha,Highland,796,56.898697,-5.474509
783,Beinn Bhan,Highland,796,56.925261,-5.056843
784,Meall a'Phubuill,Highland,774,56.918018,-5.239027
785,Braigh nan Uamhachan,Highland,765,56.92688,-5.32867
786,Druim Fada,Highland,744,56.893406,-5.142272
787,Mullach Coire nan Geur-oirean,Highland,727,56.953511,-5.209633
788,An Stac,Highland,718,56.942093,-5.508599
789,Meith Bheinn,Highland,710,56.925165,-5.581421
790,Meall Onfhaidh,Highland,681,56.905207,-5.269101
791,Aodann Chleireig,Highland,663,56.890769,-5.29374
792,Glas-charn,Highland,633,56.894814,-5.537558
793,Sithean Mor,Highland,601,56.915082,-5.731696
794,Druim a'Chuirn,Highland,584,56.938648,-5.573373
795,Beinn nan Cabar,Highland,574,56.916275,-5.672949
796,Carn a'Ghobhair,Highland,548,57.002335,-5.761314
797,Creag Bhan,Highland,510,56.900161,-5.643269
798,Cruach Dhubh an Ruidhe Fearna,Highland,445,56.933739,-5.671848
799,Sgurr Bhuidhe,Highland,440,56.986096,-5.749973
800,Meall Bhanbhaidh,Highland,326.6,56.863667,-5.092535
801,Cruach Doir'an Raoigh,Highland,292,56.879463,-5.719503
802,Sgurr na Dubh-chreige,Highland,197,56.977369,-5.801918
803,Carn Eige,Highland,1183,57.287711,-5.115127
804,Mam Sodhail,Highland,1179.4,57.279801,-5.120267
805,Sgurr nan Ceathreamhnan,Highland,1151,57.254911,-5.222732
806,Stob a'Choire Dhomhain,Highland,1147,57.28993,-5.102449
807,Sgurr nan Ceathreamhnan West Top,Highland,1143,57.254451,-5.229442
808,Stob Coire Dhomhnuill,Highland,1139,57.288705,-5.091307
809,Sron Garbh,Highland,1131,57.290261,-5.080597
810,Tom a'Choinich,Highland,1112,57.299554,-5.048962
811,Ciste Dhubh,Highland,1108,57.2733,-5.129706
812,Stuc Bheag,Highland,1075,57.262666,-5.229133
813,An Tudair,Highland,1074,57.267659,-5.106713
814,Stob Coire Coulavie,Highland,1068,57.267825,-5.135844
815,Sgurr Fhuaran,Highland,1067,57.196142,-5.347616
816,An Tudair North Top,Highland,1062,57.271035,-5.114862
817,Creag Coire nan Each,Highland,1055,57.260493,-5.129265
818,Toll Creagach,Highland,1054,57.309227,-4.999953
819,An Leth-chreag,Highland,1051,57.295941,-5.0652
820,Stuc Mor,Highland,1041,57.267603,-5.229399
821,Sgurr a'Bhealaich Dheirg,Highland,1036,57.177825,-5.252177
822,Sgurr na Lapaich,Highland,1036,57.272748,-5.063121
823,Beinn Fhada,Highland,1032,57.220993,-5.283518
824,Tom a'Choinich Beag,Highland,1032,57.298909,-5.059585
825,Sgurr na Ciste Duibhe,Highland,1027,57.180923,-5.337151
826,Beinn Fhionnlaidh,Highland,1005,57.306004,-5.129911
827,Sgurr na Carnach,Highland,1002,57.189025,-5.349224
828,Aonach Meadhoin,Highland,1001,57.173082,-5.229121
829,Mullach Cadha Rainich,Highland,996,57.274141,-5.087347
830,Creag nan Clachan Geala,Highland,999,57.257402,-5.247859
831,Sgurr nan Spainteach,Highland,990,57.181761,-5.324894
832,Sgurr an Fhuarail,Highland,987,57.175238,-5.220058
833,Mullach na Dheiragain,Highland,982,57.283399,-5.18635
834,Ciste Dhubh,Highland,979,57.199243,-5.209016
835,Mullach Sithidh,Highland,974,57.287966,-5.183856
836,Carn na Con Dhu,Highland,967,57.267575,-5.197823
837,Sgurr nan Ceathreamhnan East Top,Highland,970,57.25237,-5.20964
838,Sgurr a'Dubh Doire,Highland,962,57.215322,-5.256207
839,Saileag,Highland,956,57.181273,-5.281332
840,Meall an Fhuarain Mhoir,Highland,954,57.22345,-5.314528
841,Toll Creagach West Top,Highland,951,57.30197,-5.026728
842,Creag a'Choir Aird E Top,Highland,932,57.289801,-5.176012
843,Stob Coire nan Dearcag,Highland,941,57.25247,-5.19867
844,Sgurr nan Saighead,Highland,929,57.206017,-5.354872
845,An Socach,Highland,921,57.257533,-5.171293
846,A'Ghlas-bheinn,Highland,918,57.25509,-5.303687
847,Stuc Fraoch Choire,Highland,918,57.276769,-5.232625
848,Meall an Fhuarain Mhoir West Top,Highland,918,57.224022,-5.321151
849,Stob Coire Lochan,Highland,916.9,57.296263,-5.12299
850,Stob Coire na Cloiche,Highland,915,57.254569,-5.1925
851,Creag na h-Eige,Highland,911.7,57.306794,-5.088575
852,An Socach North Top,Highland,906,57.261723,-5.163027
853,Sgurr an Airgid,Highland,841,57.248593,-5.415477
854,Sgurr Gaorsaic,Highland,839,57.245255,-5.256941
855,Am Bathach,Highland,798,57.179265,-5.189109
856,Carnan Cruithneachd,Highland,727.8,57.278909,-5.328621
857,Carn Loch na Gobhlaig,Highland,716,57.328006,-4.896821
858,Carn Bad a'Chreamha,Highland,633.2,57.281501,-5.442895
859,Beinn a'Mheadhoin,Highland,613,57.285793,-4.957197
860,Meall Sguman,Highland,544,57.288131,-5.282545
861,Beinn a'Mheadhain,Highland,414,57.302466,-5.456964
862,A'Chraileag,Highland,1120,57.18424,-5.154842
863,Sgurr nan Conbhairean,Highland,1109,57.177613,-5.095407
864,Mullach Fraoch-choire,Highland,1102,57.20545,-5.155691
865,Mullach Fraoch-choire NE Top,Highland,1047,57.207532,-5.148647
866,Stob Coire na Craileig,Highland,1008,57.19769,-5.160808
867,Sail Chaorainn,Highland,1002,57.191804,-5.091098
868,Drochaid an Tuill Easaich,Highland,1001,57.173174,-5.110227
870,Creag a'Chaorainn,Highland,998,57.171382,-5.083071
871,Carn Ghluasaid,Highland,957,57.16595,-5.068158
872,A'Chioch,Highland,947,57.188425,-5.132532
874,Carn a'Mhadaidh-ruaidh,Highland,922,57.185597,-5.078876
875,Aonach Shasuinn,Highland,888,57.216381,-5.026852
876,Carn a'Choire Ghairbh,Highland,865,57.222594,-5.087627
877,Carn a'Chaochain,Highland,706,57.216744,-4.924349
878,Meall Fuar-mhonaidh,Highland,699,57.264442,-4.560048
879,Meall a'Chrathaich,Highland,679,57.260004,-4.719465
880,Carn Mhic an Toisich,Highland,678,57.226721,-4.800146
881,Glas-bheinn Mhor,Highland,651,57.272212,-4.593933
882,Creag Dhubh,Highland,539,57.251019,-4.94378
883,Carn Fiaclach,Highland,457,57.303248,-4.858501
884,Sgurr a'Choire Ghlais,Highland,1083,57.444288,-4.903757
885,Sgurr a'Chaorachain,Highland,1053,57.452492,-5.1893
886,Sgurr Fhuar-thuill,Highland,1049,57.44968,-4.94178
887,Bidean an Eoin Deirg,Highland,1046.5,57.44946,-5.162161
888,Creag Ghorm a'Bhealaich,Highland,1030,57.447794,-4.926674
889,Sgurr na Fearstaig,Highland,1015,57.449186,-4.954411
890,Maoile Lunndaidh,Highland,1004.9,57.464477,-5.111002
891,Creag Toll a'Choin,Highland,1005.2,57.459567,-5.117655
892,Sgurr Choinnich,Highland,999.2,57.451026,-5.207916
893,Carn nam Fiaclan,Highland,993,57.460891,-5.129656
894,Sgurr na Ruaidhe,Highland,993,57.441497,-4.852465
895,Carn nan Gobhar,Highland,992,57.452331,-4.879935
896,Lurg Mhor,Highland,987,57.413091,-5.22365
897,Meall Mor,Highland,974,57.414539,-5.211667
898,Bidein a'Choire Sheasgaich,Highland,945,57.419718,-5.250473
899,Moruisg,Highland,928,57.499712,-5.17063
900,Sgurr nan Ceannaichean,Highland,913.43,57.482307,-5.192321
901,Aonach na Reise,Highland,911.9,57.444161,-4.827579
902,Sgurr na Conbhaire,Highland,901.9,57.439745,-5.19946
903,Sgurr a'Mhuilinn,Highland,879,57.558383,-4.902303
904,Beinn Tharsuinn,Highland,863,57.438689,-5.241955
905,Beinn a'Bha'ach Ard,Highland,862,57.451935,-4.733922
906,Sgurr na Feartaig,Highland,863,57.457045,-5.243648
907,Bac an Eich,Highland,849,57.495759,-4.968274
908,Sgurr a'Choire-rainich,Highland,848,57.5682,-4.930968
909,Meallan nan Uan,Highland,838,57.546909,-4.902962
910,An Sidhean,Highland,814,57.46181,-5.050778
911,Beinn Dronaig,Highland,797,57.391571,-5.267939
912,Beinn na Muice,Highland,695,57.417413,-4.967457
913,Meall na Faochaig,Highland,681,57.529015,-4.911914
914,Carn na Coinnich,Highland,673.3,57.518527,-4.799112
915,Beinn Mheadhoin,Highland,665,57.486605,-4.906366
916,Creag Dhubh Mhor,Highland,611,57.409763,-5.359872
917,Sgurr Marcasaidh,Highland,580,57.593363,-4.755461
918,Creag Loch nan Dearcag,Highland,537,57.569833,-4.788288
919,Carn nan Iomairean,Highland,485,57.359379,-5.469406
920,Beinn Conchra,Highland,453,57.304041,-5.5091
921,Auchtertyre Hill,Highland,452,57.299507,-5.599448
922,Beinn Raimh,Highland,448,57.320373,-5.576148
923,Creag Mhor,Highland,407,57.32644,-5.484363
924,Carn Faire nan Con,Highland,370,57.594061,-4.685922
925,Torr Achilty,Highland,252,57.559133,-4.59642
926,Sgurr na Lapaich,Highland,1151,57.369311,-5.059726
927,An Riabhachan,Highland,1129,57.362429,-5.104728
928,An Riabhachan NE Top,Highland,1125,57.36512,-5.097287
929,Sgurr nan Clachan Geala,Highland,1093,57.361399,-5.057952
930,An Riabhachan SW Top,Highland,1086,57.354228,-5.121945
931,An Socach,Highland,1069,57.350229,-5.158603
932,An Socach East Top,Highland,1057,57.351225,-5.152935
933,Rubha na Spreidhe,Highland,1057,57.373749,-5.056485
934,An Riabhachan West Top,Highland,1038,57.355399,-5.131241
936,Carn nan Gobhar,Highland,993,57.363304,-5.024544
937,Creag a'Chaorainn,Highland,969,57.357706,-5.047171
938,Braigh a'Choire Bhig,Highland,964,57.350086,-5.064829
939,Creag Dubh,Highland,947,57.370425,-4.995485
940,Aonach Buidhe,Highland,899,57.341161,-5.229309
941,Sguman Coinntich,Highland,879,57.31878,-5.361278
942,Faochaig,Highland,868,57.332915,-5.288039
943,Sgorr na Diollaid,Highland,818,57.384228,-4.860012
944,An Cruachan,Highland,705,57.373256,-5.171898
945,Carn na Breabaig,Highland,679,57.320874,-5.212441
946,Carn Gorm,Highland,677.2,57.379252,-4.781762
947,Meallan Odhar Doire nan Gillean,Highland,598.7,57.39293,-5.069706
948,Beinn Dubh an Iaruinn,Highland,591,57.407258,-5.027053
949,Carn a'Bhodaich,Highland,501,57.405378,-4.382006
950,Meall na h-Eilrig,Highland,465,57.360439,-4.433617
951,Carn nam Bad,Highland,457,57.367619,-4.65923
952,Meall Innis an Loichel,Highland,390,57.405427,-4.99085
953,Liathach - Spidean a'Choire Leith,Highland,1055,57.564198,-5.463592
954,Liathach - Mullach an Rathain,Highland,1023,57.560891,-5.49255
955,Beinn Eighe - Ruadh-stac Mor,Highland,1010,57.593735,-5.429454
956,Beinn Eighe - Spidean Coire nan Clach,Highland,993,57.582098,-5.403706
957,Beinn Alligin - Sgurr Mhor,Highland,986,57.59082,-5.572764
958,Stob a'Choire Liath Mhor,Highland,983,57.565485,-5.459279
959,Sail Mhor,Highland,980,57.588074,-5.451133
960,Coinneach Mhor,Highland,976,57.583242,-5.440081
961,Sgurr Ban,Highland,970,57.584618,-5.389899
962,Sgurr nan Fhir Duibhe,Highland,963,57.584963,-5.378048
963,Meall Dearg,Highland,955,57.563251,-5.489464
965,Creag Dhubh,Highland,929,57.588786,-5.375942
967,Am Fasarinen,Highland,930,57.559451,-5.473076
968,Beinn Alligin - Tom na Gruagaich,Highland,922,57.580519,-5.581912
969,Stuc a'Choire Dhuibh Bhig,Highland,915,57.567088,-5.442403
970,Beinn Dearg,Highland,913.7,57.588177,-5.522871
971,Ruadh-stac Beag,Highland,896,57.596383,-5.393975
972,Meall a'Ghiubhais,Highland,887,57.615191,-5.390202
973,Baosbheinn,Highland,875,57.628246,-5.568633
974,Beinn an Eoin,Highland,855,57.622829,-5.509791
975,Beinn a'Chearcaill,Highland,725.2,57.616412,-5.466419
976,An Ruadh-mheallan,Highland,671,57.591147,-5.622183
977,Meall an Doirein,Highland,420,57.717343,-5.596307
978,Meall Lochan a'Chleirich,Highland,403,57.683943,-5.571023
979,Sithean Mor,Highland,382.9,57.703642,-5.63374
980,An Cuaidh,Highland,296,57.835629,-5.766643
981,Sgorr Ruadh,Highland,960.7,57.498622,-5.407747
982,Maol Chean-dearg,Highland,933,57.491697,-5.465549
983,Beinn Liath Mhor,Highland,926,57.512074,-5.400617
984,Fuar Tholl,Highland,907,57.485385,-5.379188
985,Raeburn's Buttress,Highland,903.4,57.500457,-5.400053
986,Beinn Damh,Highland,903,57.492846,-5.518149
987,Beinn Bhan,Highland,896,57.442348,-5.661686
988,An Ruadh-stac,Highland,892,57.475016,-5.468323
989,Sgorr nan Lochan Uaine,Highland,871,57.522771,-5.393259
990,Sgurr a'Chaorachain,Highland,792,57.412544,-5.670353
991,Sgurr Dubh,Highland,782,57.54691,-5.378786
992,Beinn na h-Eaglaise,Highland,736,57.512958,-5.493208
993,Sgurr a'Gharaidh,Highland,732,57.440171,-5.52729
994,Carn Breac,Highland,678,57.524874,-5.266332
995,Beinn a'Chlachain,Highland,626,57.474397,-5.79749
996,Beinn na Feusaige,Highland,627,57.537831,-5.192445
997,Ben Shieldaig,Highland,534,57.509831,-5.618389
998,An Staonach,Highland,516,57.471012,-5.620553
999,Bidein Clann Raonaild,Highland,466,57.580711,-5.256997
1000,Seana Mheallan,Highland,437,57.53861,-5.462065
1001,Bad a'Chreamha,Highland,395,57.369692,-5.564478
1002,An Sgurr,Highland,391,57.388453,-5.567399
1003,An Teallach - Bidein a'Ghlas Thuill,Highland,1062.5,57.807098,-5.251767
1004,An Teallach - Sgurr Fiona,Highland,1058.6,57.800726,-5.259443
1005,Corrag Bhuidhe,Highland,1049,57.79848,-5.257994
1006,Lord Berkeley's Seat,Highland,1032,57.79921,-5.258616
1007,Mullach Coire Mhic Fhearchair,Highland,1015.2,57.709022,-5.271342
1008,Sgurr Creag an Eich,Highland,1016.4,57.801702,-5.273859
1009,Sgurr Ban,Highland,989,57.718538,-5.265903
1010,Slioch,Highland,981,57.667176,-5.347047
1011,Mullach Coire Mhic Fhearchair East Top,Highland,977.8,57.708119,-5.264208
1012,Slioch - Trig Point,Highland,980,57.665378,-5.346361
1013,Glas Mheall Mor,Highland,979,57.816457,-5.240466
1014,A'Mhaighdean,Highland,967,57.719644,-5.34672
1015,Stob Cadha Gobhlach,Highland,960,57.791161,-5.250719
1016,Glas Mheall Liath,Highland,960.4,57.805098,-5.236853
1017,Sail Liath,Highland,954,57.790409,-5.24572
1018,Corrag Bhuidhe Buttress,Highland,946,57.795614,-5.255722
1019,Beinn Tarsuinn,Highland,937,57.702052,-5.291601
1020,Sgurr an Tuill Bhain,Highland,934,57.665986,-5.323655
1021,Glas Mheall Mor West Top,Highland,917.7,57.8127,-5.251682
1022,Sgurr Dubh,Highland,915.3,57.704124,-5.256712
1023,Ruadh Stac Mor,Highland,918.7,57.726781,-5.329288
1024,Beinn a'Chlaidheimh,Highland,913.96,57.745922,-5.259066
1025,Beinn Dearg Mor,Highland,906.28,57.765796,-5.309938
1026,Beinn Lair,Highland,859,57.703824,-5.38922
1027,Beinn a'Chaisgein Mor,Highland,856,57.751174,-5.392091
1028,Beinn Dearg Bheag,Highland,820,57.775977,-5.331425
1029,Creag Rainich,Highland,807,57.725649,-5.199021
1030,Beinn Airigh Charr,Highland,792,57.727548,-5.477608
1031,Sail Mhor,Highland,767,57.844449,-5.315836
1032,Meall Mheinnidh,Highland,722,57.716671,-5.435155
1033,Beinn a'Mhuinidh,Highland,692,57.641228,-5.298727
1034,Beinn a'Chaisgein Beag,Highland,682,57.7826,-5.422808
1035,Beinn Ghobhlach,Highland,635,57.895968,-5.282466
1036,Beinn nam Ban,Highland,580,57.866757,-5.189718
1037,Cnoc a'Bhaid-rallaich,Highland,544,57.884774,-5.263743
1038,Meall Glac Tigh-fail,Highland,521,57.796786,-5.09543
1039,Carn nam Buailtean,Highland,392,57.829836,-5.35654
1040,Sgurr Mor,Highland,1108,57.700134,-5.016748
1041,Sgurr nan Clach Geala,Highland,1093,57.696287,-5.048238
1042,Sgurr Breac,Highland,999,57.69205,-5.091722
1043,A'Chailleach,Highland,997,57.693782,-5.12873
1044,Meall nam Peithirean,Highland,974.2,57.692003,-5.009182
1045,Carn na Criche,Highland,961,57.706292,-5.029065
1046,Beinn Liath Mhor Fannaich,Highland,954,57.706104,-4.989776
1047,Meall Gorm,Highland,949,57.680837,-4.983801
1048,Toman Coinich,Highland,935,57.694013,-5.107684
1049,Meall a'Chrasgaidh,Highland,934,57.712876,-5.048726
1050,Fionn Bheinn,Highland,933,57.611148,-5.102713
1051,Sgurr nan Each,Highland,923,57.681017,-5.046351
1052,An Coileachan,Highland,923.9,57.667625,-4.949498
1053,Meall Gorm SE Top,Highland,922,57.677602,-4.966557
1054,Beinn Liath Mhor a'Ghiubhais Li,Highland,766,57.698655,-4.886379
1055,Groban,Highland,749,57.687543,-5.189231
1056,Beinn nan Ramh,Highland,711,57.646754,-5.118963
1057,Meall a'Chaorainn,Highland,705,57.595104,-5.120613
1058,Ceann Garbh Meallan Chuaich,Highland,697,57.678459,-5.162241
1059,Beinn Bheag,Highland,668,57.691513,-5.214204
1060,An Cabar,Highland,559,57.633152,-4.920552
1061,Carn na Dubh Choille,Highland,480,57.666988,-4.705754
1062,Beinn Dearg,Highland,1084,57.78635,-4.929557
1063,Cona' Mheall,Highland,978,57.791068,-4.9034
1064,Meall nan Ceapraichean,Highland,977,57.798505,-4.934011
1065,Ceann Garbh,Highland,968,57.803212,-4.930656
1066,Am Faochagach,Highland,953,57.771801,-4.853899
1067,Ceann Garbh,Highland,942,57.803703,-4.918692
1068,Eididh nan Clach Geala,Highland,927,57.813492,-4.934218
1069,Seana Bhraigh,Highland,926,57.84733,-4.89662
1070,Carn Gorm-loch,Highland,909,57.778017,-4.828497
1071,Creag an Duine,Highland,905,57.848055,-4.871071
1072,Seana Bhraigh South Top,Highland,905,57.840535,-4.885639
1073,Beinn Enaiglair,Highland,890,57.779101,-4.986727
1074,Carn Ban,Highland,842,57.846772,-4.801042
1075,Meall Doire Faid,Highland,729,57.767158,-4.99277
1076,Carn a'Choin Deirg,Highland,701,57.891724,-4.704958
1077,Beinn Bhreac,Highland,667,57.852083,-4.991524
1078,Meall a'Chaorainn,Highland,632,57.804019,-4.761447
1079,Cnoc Damh,Highland,588,57.921785,-4.921905
1080,Meall an Fhuarain,Highland,578,57.977282,-4.909305
1081,Beinn Eilideach,Highland,559,57.885918,-5.08733
1082,Meall Liath Choire,Highland,549,57.918844,-4.996635
1083,Meall Coire an Lochain,Highland,517,58.011762,-5.028402
1084,Meall Dheirgidh,Highland,506,57.912303,-4.578827
1085,Breac-Bheinn,Highland,464,57.919782,-4.537196
1087,Creag Loisgte,Highland,415,57.92145,-4.757659
1088,Ben Wyvis - Glas Leathad Mor,Highland,1046,57.678895,-4.579282
1089,An t-Socach,Highland,1006,57.677363,-4.566257
1090,Tom a'Choinnich,Highland,954,57.693693,-4.579411
1091,An Cabar,Highland,946,57.662377,-4.599102
1092,Glas Leathad Beag,Highland,928,57.700548,-4.531457
1093,Meall nan Bradan Leathan,Highland,920,57.704432,-4.524577
1094,Glas Leathad Beag West Top,Highland,910,57.69843,-4.543847
1095,Carn Chuinneag,Highland,839,57.813803,-4.554142
1096,Beinn a'Chaisteil,Highland,787,57.780902,-4.742992
1097,Little Wyvis,Highland,763,57.642776,-4.632608
1098,Beinn nan Eun,Highland,743,57.74661,-4.608978
1099,Meall Mor,Highland,738,57.736191,-4.49549
1100,Beinn Tharsuinn,Highland,710,57.807758,-4.673412
1101,Carn Loch nan Amhaichean,Highland,697,57.743371,-4.670774
1102,Beinn Tharsuinn,Highland,692,57.781412,-4.345262
1103,Carn Salachaidh,Highland,647,57.851866,-4.497356
1104,Cnoc Ceislein,Highland,523,57.703205,-4.369191
1105,Cnoc Corr Guinie,Highland,396,57.749288,-4.233436
1106,Cnoc an t-Sabhail,Highland,380,57.778909,-4.197136
1107,Struie,Highland,373,57.83431,-4.261101
1108,Cnoc an t-Sabhail,Highland,321,57.80671,-4.153076
1109,Cnoc Mor,Highland,269,57.577331,-4.526404
1110,Mount Eagle,Highland,256,57.600798,-4.263101
1111,Hill of Nigg,Highland,205,57.70913,-3.981025
1113,Farrmheall,Highland,521,58.484385,-4.90354
1114,Creag Riabhach,Highland,485,58.5282,-4.957625
1115,An Grianan,Highland,467,58.517778,-4.981173
1116,Fashven,Highland,460,58.562846,-4.900387
1117,Beinn Dearg,Highland,423,58.546116,-4.958138
1118,Sgribhis-bheinn,Highland,371,58.597491,-4.893909
1119,An Socach,Highland,362,58.481126,-4.976692
1120,Ghlas-bheinn,Highland,333,58.50871,-4.864787
1121,Cnoc a'Ghiubhais,Highland,298,58.584457,-4.984006
1122,Beinn Akie,Highland,288,58.541406,-4.852191
1123,Ben Hope,Highland,927,58.413113,-4.60786
1124,Foinaven - Ganu Mor,Highland,911.05,58.41206,-4.885699
1125,Ceann Garbh,Highland,902,58.41914,-4.890183
1126,Ben Hee,Highland,873,58.265889,-4.68391
1127,Meallan Liath Coire Mhic Dhughaill,Highland,801,58.310074,-4.805668
1128,Cranstackie,Highland,801,58.457428,-4.828701
1129,Arkle,Highland,787,58.371062,-4.903644
1130,Meall Horn,Highland,777,58.361671,-4.817612
1131,Beinn Spionnaidh,Highland,773,58.473042,-4.810504
1132,Ben Loyal - An Caisteal,Highland,764.2,58.404926,-4.435027
1133,Carn an Tionail,Highland,758.5,58.310361,-4.745739
1134,Sabhal Beag,Highland,732,58.344371,-4.781128
1135,Beinn Direach,Highland,688.9,58.30211,-4.721392
1136,Meallan Liath,Highland,599.7,58.416381,-4.544641
1137,Cnoc nan Cuilean,Highland,558,58.381561,-4.400379
1138,Creag Dhubh Mhor,Highland,553,58.264797,-4.628801
1139,Ben Hiel,Highland,535,58.416175,-4.405474
1140,An Lean-charn,Highland,521,58.432866,-4.708197
1141,Meall an Fhuarain,Highland,472,58.238433,-4.534141
1142,Creag Dhubh Bheag,Highland,472,58.239094,-4.599601
1143,Feinne-bheinn Mhor,Highland,465,58.376131,-4.679539
1144,Meall Meadhonach,Highland,423,58.524178,-4.732036
1145,Meadie Ridge,Highland,414,58.35691,-4.566426
1146,Ben Hutig,Highland,408,58.551044,-4.513073
1147,Cnoc an Daimh Mor,Highland,357,58.348335,-4.508086
1148,Ben Screavie,Highland,333,58.310338,-4.886654
1149,Cnoc Craggie,Highland,319,58.44202,-4.391284
1150,Morven,Highland,706,58.234226,-3.696743
1151,Scaraben,Highland,626,58.220372,-3.591511
1152,Ben Griam Mor,Highland,590,58.322706,-4.039249
1153,Ben Griam Beg,Highland,580,58.343475,-3.997201
1154,Creag Scalabsdale,Highland,555,58.193291,-3.753724
1155,Beinn Stumanadh,Highland,527,58.416252,-4.328338
1156,Smean,Highland,511,58.226787,-3.64881
1157,Maiden Pap,Highland,484,58.242662,-3.622766
1158,Braigh na h-Eaglaise,Highland,423.6,58.177718,-3.591645
1159,Beinn Dubhain,Highland,417,58.162465,-3.808641
1160,Creag Thoraraidh,Highland,404.5,58.147291,-3.631506
1161,Cnoc Coir a'Phuill,Highland,404.3,58.160979,-3.622546
1162,Beinn a'Mhadaidh,Highland,403.1,58.344676,-4.104721
1163,Cnoc na Maoile,Highland,401.1,58.168628,-3.68809
1164,Meall nan Clach Ruadha,Highland,336,58.478758,-4.393746
1165,Ben Klibreck - Meall nan Con,Highland,962.1,58.235202,-4.41113
1166,Creag Mhor,Highland,713,58.185691,-4.2153
1167,Ben Armine,Highland,705,58.215418,-4.223264
1168,Beinn Dhorain,Highland,628,58.116766,-3.82561
1169,Beinn Mhealaich,Highland,592,58.11141,-3.765095
1170,Carn Garbh,Highland,545,58.099199,-3.880183
1171,Ben Horn,Highland,520,58.030186,-4.021346
1172,Beinn Lunndaidh,Highland,447,57.990631,-4.046371
1173,Cnoc an Liath-bhaid Mhoir,Highland,432,58.233428,-4.114521
1174,Creag nam Fiadh,Highland,387,58.186977,-3.972728
1175,Meall a'Chaise,Highland,372,58.075678,-4.288678
1176,Beinn Domhnaill,Highland,348,57.939782,-4.231916
1177,Creag a'Ghobhair,Highland,346,57.915772,-4.264025
1178,Meall Eachainn,Highland,343.5,57.972271,-4.337003
1179,An Stoc-bheinn,Highland,336.3,57.990989,-4.299462
1180,Meall Dola,Highland,323,58.030143,-4.338546
1181,Cnoc Bad an Leathaid,Highland,284,58.287942,-4.217324
1182,Creag an Amalaidh,Highland,260.9,57.94962,-4.098738
1183,Ben More Assynt,Highland,998,58.138173,-4.858192
1184,Conival,Highland,987,58.135689,-4.883497
1185,Ben More Assynt West Top,Highland,974,58.137592,-4.863778
1186,Ben More Assynt South Top,Highland,960,58.130658,-4.847855
1187,Breabag,Highland,815,58.097384,-4.908545
1188,Quinag - Sail Gharbh,Highland,809,58.215146,-5.049887
1189,Beinn Leoid,Highland,792,58.222023,-4.861613
1190,Quinag - Sail Gorm,Highland,776,58.225604,-5.069542
1191,Glas Bheinn,Highland,776,58.192672,-4.970555
1192,Quinag - Spidean Coinich,Highland,764,58.201879,-5.05447
1193,Meallan a'Chuail,Highland,750,58.220711,-4.820034
1194,Ben Stack,Highland,720,58.334928,-4.957698
1195,Meall an Fheur Loch,Highland,613,58.237676,-4.791869
1196,Beinn a'Bhutha,Highland,547,58.267942,-4.901587
1197,Beinn an Eoin,Highland,544,58.034304,-4.729278
1198,Maovally,Highland,511,58.149902,-4.757367
1199,Ben Dreavie,Highland,510,58.312564,-4.969935
1200,Beinn an Fhuarain,Highland,502,58.097405,-4.952915
1201,Stack of Glencoul,Highland,497,58.212877,-4.912414
1202,Beinn Sgeireach,Highland,476,58.068407,-4.623264
1203,Creag nan Suibheag,Highland,466,58.223528,-4.756585
1204,Cnoc na Stroine,Highland,398.3,58.070277,-4.96124
1205,Cul Mor,Highland,849,58.058124,-5.116768
1206,Canisp,Highland,847,58.120906,-5.052849
1207,Cul Beag,Highland,769,58.029553,-5.151012
1208,Ben Mor Coigach,Highland,743,57.986532,-5.225735
1209,Suilven,Highland,731,58.115523,-5.136778
1210,Sgurr an Fhidhleir,Highland,705,57.997286,-5.225941
1211,Beinn an Eoin,Highland,619,58.006568,-5.209015
1212,Stac Pollaidh,Highland,612,58.044114,-5.208535
1213,Sgorr Tuath,Highland,587.5,58.016254,-5.200652
1214,Beinn Reidh,Highland,567,58.14373,-5.040595
1215,An Laogh,Highland,546,58.042929,-5.115936
1216,Beannan Beaga,Highland,396,57.971145,-5.204019
1217,Meall an Fheadain,Highland,204,58.042481,-5.39206
1218,The Storr,Highland,719,57.507097,-6.183094
1219,Hartaval,Highland,669,57.515722,-6.209519
1220,Baca Ruadh,Highland,638.3,57.537419,-6.220903
1221,Ben Dearg,Highland,552,57.473706,-6.207682
1222,Meall na Suiramach,Highland,543,57.642974,-6.281402
1223,Healabhal Bheag,Highland,489,57.384259,-6.620372
1224,Healabhal Mhor,Highland,471,57.405776,-6.630885
1225,Bioda Buidhe,Highland,466,57.614712,-6.289769
1226,Ben Lee,Highland,444,57.324552,-6.150511
1227,Dun Caan,Highland,444,57.381265,-6.029274
1228,Roineval,Highland,439,57.332702,-6.291212
1229,Beinn na Greine,Highland,417,57.393828,-6.229723
1230,Ben Tianavaig,Highland,413,57.390993,-6.142525
1231,Beinn Bhac-ghlais,Highland,409,57.370349,-6.610694
1232,Sithean Bhealaich Chumhaing,Highland,393,57.441385,-6.152981
1233,Beinn Chreagach,Highland,326,57.489802,-6.525682
1234,Beinn Bhreac,Highland,329,57.484463,-6.584242
1235,Biod an Athair,Highland,314,57.495297,-6.744871
1236,Cruachan-Glen Vic Askill,Highland,295,57.427738,-6.403837
1237,Ben Geary,Highland,284,57.559612,-6.593733
1238,Beinn na h-Iolaire,Highland,254,57.478825,-6.005471
1239,Sgurr Alasdair,Highland,992,57.206598,-6.224144
1240,Sgurr Dearg - Inaccessible Pinnacle,Highland,986,57.21327,-6.234819
1241,Sgurr Dearg - Cairn,Highland,978,57.213169,-6.235155
1242,Sgurr Thearlaich,Highland,978,57.206639,-6.222906
1243,Sgurr a'Ghreadaidh,Highland,973,57.227286,-6.234438
1244,Sgurr a'Ghreadaidh South Top,Highland,970,57.226236,-6.234085
1245,Sgurr na Banachdich,Highland,965,57.220964,-6.24162
1246,Sgurr nan Gillean,Highland,964,57.248262,-6.193098
1247,Bruach na Frithe,Highland,958,57.246761,-6.210795
1248,Sgurr Mhic Choinnich,Highland,948,57.208964,-6.2241
1249,Sgurr Sgumain,Highland,947,57.205526,-6.226606
1250,Sgurr Dubh Mor,Highland,944,57.204894,-6.211421
1251,Sgurr na Banachdich Central Top,Highland,942,57.219581,-6.2405
1252,Sgurr Dubh an Da Bheinn,Highland,938,57.204001,-6.215247
1253,Sgurr a'Fionn Choire,Highland,936,57.247016,-6.205102
1254,Am Basteir,Highland,934,57.247931,-6.202982
1255,Bla Bheinn,Highland,929,57.219565,-6.09321
1256,Sgurr Thormaid,Highland,926,57.222366,-6.240903
1257,Bla Bheinn SW Top,Highland,926,57.217602,-6.095214
1258,Sgurr nan Eag,Highland,926.2,57.19581,-6.211264
1259,Sgurr a'Mhadaidh,Highland,918,57.230869,-6.231931
1260,Bhasteir Tooth,Highland,917.16,57.247705,-6.20387
1261,Knight's Peak,Highland,914.24,57.249394,-6.192914
1262,Garbh-bheinn,Highland,808,57.233105,-6.092474
1263,Glamaig - Sgurr Mhairi,Highland,775,57.292709,-6.128399
1264,Marsco,Highland,736,57.249179,-6.133477
1265,Beinn Dearg Mhor,Highland,731,57.279543,-6.115815
1266,Belig,Highland,702,57.240983,-6.072284
1267,Beinn Dearg Mheadhonach,Highland,651,57.266875,-6.122864
1268,Glas Bheinn Mhor,Highland,569,57.256872,-6.057579
1269,Sgurr na Stri,Highland,495,57.195815,-6.138951
1270,Ruadh Stac,Highland,493,57.232524,-6.119538
1271,Beinn a'Bhraghad,Highland,461,57.245867,-6.295516
1272,Beinn Bhreac,Highland,448,57.253924,-6.404218
1273,An Cruachan,Highland,435,57.218253,-6.338703
1274,Biod Mor,Highland,384,57.261337,-6.362215
1275,Arnaval,Highland,369,57.298164,-6.408633
1276,Ben Meabost,Highland,345.6,57.168043,-6.076481
1277,Meall a'Mhaoil,Highland,284,57.301798,-6.062599
1279,Sgurr na Coinnich,Highland,739,57.23614,-5.709427
1280,Beinn na Caillich,Highland,732,57.237613,-5.976321
1281,Beinn na Caillich,Highland,732,57.242915,-5.696774
1282,Beinn Dearg Mhor,Highland,709,57.232593,-5.998762
1283,Ben Aslak,Highland,609,57.207451,-5.725944
1284,Ben na Cro,Highland,572,57.243635,-6.030529
1285,Beinn na Seamraig,Highland,561,57.194406,-5.760687
1286,Mullach na Carn,Highland,396,57.290758,-5.975119
1287,Beinn nan Carn,Highland,301,57.192434,-5.914432
1288,Sgorach Breac,Highland,299,57.149465,-5.883996
1289,Sgurr na h-Iolaire,Highland,292,57.110547,-5.937031
1290,Sgurr nan Caorach,Highland,281.2,57.055094,-5.969733
1292,Askival,Highland,812,56.974433,-6.291504
1293,Ainshval,Highland,781,56.96563,-6.314678
1294,Trollabhal,Highland,702,56.973392,-6.317273
1295,Orval,Highland,571,57.005877,-6.39314
1296,An Sgurr,Highland,394,56.884144,-6.166052
1297,Sgorr an Fharaidh,Highland,340,56.926542,-6.134272
1298,Mullach Mor,Highland,304,57.030422,-6.308655
1299,Sgaorishal,Highland,280,57.032596,-6.366524
1300,Carn a'Ghaill,Highland,211,57.067534,-6.51582
1301,Ben More,Argyll and Bute,966,56.424829,-6.014015
1302,Dun da Ghaoithe,Argyll and Bute,766,56.460438,-5.779508
1303,Beinn Talaidh,Argyll and Bute,761.7,56.444568,-5.854288
1304,Sgurr Dearg,Argyll and Bute,741,56.440119,-5.788867
1305,Ben Buie,Argyll and Bute,717,56.375079,-5.881786
1306,Corra-bheinn,Argyll and Bute,704.9,56.419301,-5.936299
1307,Cruachan Dearg,Argyll and Bute,704.1,56.428147,-5.94515
1308,Beinn Fhada,Argyll and Bute,702,56.441972,-5.992496
1309,Creach-Beinn,Argyll and Bute,698,56.381992,-5.819701
1310,Cruach Choireadail,Argyll and Bute,618,56.405123,-5.90011
1311,Beinn a'Ghraig,Argyll and Bute,591,56.463264,-5.992296
1312,Coirc Bheinn,Argyll and Bute,561,56.419214,-6.075534
1313,Beinn na Sreine,Argyll and Bute,521,56.39719,-6.12361
1314,Beinn na Croise,Argyll and Bute,503,56.355163,-5.951643
1315,Creach Bheinn,Argyll and Bute,491.6,56.383677,-6.18196
1316,Beinn na Duatharach,Argyll and Bute,456,56.458145,-5.889406
1317,Speinne Mor,Argyll and Bute,446,56.573157,-6.072781
1318,Beinn na Drise,Argyll and Bute,424,56.508543,-6.105231
1319,Beinn Bhuidhe,Argyll and Bute,413,56.489798,-5.916267
1320,Druim Fada,Argyll and Bute,405,56.336762,-5.808602
1321,Beinn Chreagach,Argyll and Bute,378.6,56.322532,-6.01282
1322,Cruachan Min,Argyll and Bute,376,56.318808,-6.132395
1323,Cruach Torr an Lochain,Argyll and Bute,347.7,56.491351,-5.958776
1324,Carn Mor,Argyll and Bute,343.1,56.559469,-6.234596
1325,Maol Ban,Argyll and Bute,338.5,56.350408,-5.75028
1326,Creachan Mor,Argyll and Bute,331,56.302247,-6.049046
1327,Beinn Chreagach,Argyll and Bute,313,56.482128,-6.218893
1328,'S Airde Beinn,Argyll and Bute,295,56.606383,-6.12277
1329,Tom nam Fitheach,Argyll and Bute,275.5,56.559543,-6.12029
1330,Carn Ban,Argyll and Bute,248,56.397411,-5.693789
1331,Gometra,Argyll and Bute,155,56.490558,-6.288535
1332,Carnan Mor,Argyll and Bute,141,56.45531,-6.923395
1333,Beinn Odhar Bheag,Highland,882,56.842222,-5.532394
1334,Rois-Bheinn,Highland,882,56.837626,-5.680425
1335,Sgurr na Ba Glaise,Highland,874,56.837554,-5.657223
1336,An Stac,Highland,814,56.850883,-5.67052
1337,Beinn Mhic Cedidh,Highland,783,56.849855,-5.563058
1338,Sgurr Dhomhuill Mor,Highland,713.7,56.8197,-5.704328
1339,Beinn Gaire,Highland,666,56.812363,-5.636849
1340,Croit Bheinn,Highland,663,56.835606,-5.590275
1341,Ben Hiant,Highland,528,56.695978,-6.023472
1342,Ben Laga,Highland,512,56.691167,-5.846648
1343,Meall nan Each,Highland,490,56.71019,-5.870549
1344,Meall nan Con,Highland,437,56.737854,-6.08321
1345,Meall an Tarmachain,Highland,405,56.7207,-6.10001
1346,Beinn na Seilg,Highland,344,56.699993,-6.15358
1347,Beinn a'Bhaillidh,Highland,265,56.799399,-5.851987
1348,Beinn Bhreac,Highland,240,56.777379,-5.796613
1349,Sgurr Dhomhnuill,Highland,888,56.754656,-5.453786
1350,Garbh Bheinn,Highland,885,56.704449,-5.425008
1351,Sgurr Ghiubhsachain,Highland,849,56.818945,-5.482559
1352,Beinn Resipol,Highland,845,56.727189,-5.652605
1353,Druim Garbh,Highland,803,56.758514,-5.466678
1354,Carn na Nathrach,Highland,786,56.772398,-5.460755
1355,Sgorr Craobh a'Chaorainn,Highland,775,56.825832,-5.45052
1356,Stob Coire a'Chearcaill,Highland,771,56.803245,-5.249612
1357,Druim Tarsuinn,Highland,770,56.797506,-5.482126
1358,Beinn na h-Uamha,Highland,762.4,56.742777,-5.407524
1359,Sgurr a'Chaorainn,Highland,760.6,56.7398,-5.443523
1360,Sgorr an Tarmachain,Highland,756,56.783835,-5.53924
1361,Beinn Bheag,Highland,736,56.716728,-5.409351
1362,Druim na Sgriodain,Highland,734,56.7382,-5.306852
1363,Meall nan Damh,Highland,723,56.815253,-5.410255
1364,Stob Mhic Bheathain,Highland,721,56.787131,-5.416512
1365,Sgurr nan Cnamh,Highland,701,56.722553,-5.455353
1366,Sgorr Mhic Eacharna,Highland,650,56.712968,-5.386027
1367,Glas Bheinn,Highland,636,56.827667,-5.378573
1368,Druim Leathad nam Fias,Highland,576,56.779192,-5.347305
1369,Meall a'Bhainne,Highland,559,56.850511,-5.443014
1370,Beinn Leamhain,Highland,508,56.707501,-5.338822
1371,A'Bheinn Bhan,Highland,477,56.744856,-5.360806
1372,Meall an t-Slamain,Highland,467,56.816841,-5.162047
1373,Creach Bheinn,Highland,853,56.661979,-5.476201
1374,Fuar Bheinn,Highland,766,56.649484,-5.503071
1375,Beinn Mheadhoin,Highland,739,56.603062,-5.587346
1376,Beinn na Cille,Highland,652,56.630469,-5.500508
1377,Beinn nam Beathrach,Highland,582,56.652991,-5.668597
1378,Sidhean na Raplaich,Highland,551,56.5973,-5.852447
1379,An Sleaghach,Highland,515,56.529381,-5.636142
1380,Beinn Chlaonleud,Highland,479,56.626151,-5.672596
1381,Beinn na h-Uamha,Highland,465,56.615297,-5.779429
1382,Beinn a'Chaisil,Highland,437,56.568588,-5.61411
1383,Cruachan Charna,Highland,170,56.661776,-5.888161
1384,Cruach Mhor,Argyll and Bute,589,56.285229,-5.140294
1385,Beinn Bhreac,Argyll and Bute,526,56.243823,-5.184578
1386,Beinn Ghlas,Argyll and Bute,512,56.381705,-5.309867
1387,Beinn Chapull,Argyll and Bute,515,56.32379,-5.337353
1388,Carn Duchara,Argyll and Bute,491,56.238141,-5.401911
1389,Beinn Dearg,Argyll and Bute,483.3,56.196639,-5.186178
1390,Beinn Dubh Airigh,Argyll and Bute,459,56.180527,-5.290823
1391,Carn Dearg,Argyll and Bute,437,56.316335,-5.403432
1392,Beinn Ghlas,Argyll and Bute,420,56.143721,-5.238156
1393,Deadh Choimhead,Argyll and Bute,383,56.405318,-5.329154
1394,Cruach na Seilcheig,Argyll and Bute,380,56.243431,-5.46427
1395,A'Chruach,Argyll and Bute,366,56.342854,-5.393735
1396,Dun Leacainn,Argyll and Bute,360,56.16655,-5.168716
1398,Cruach nam Fearna,Argyll and Bute,332,56.278402,-5.517891
1399,Beinn Bhan,Argyll and Bute,319,56.142674,-5.451327
1400,Cnoc nam Broighleag,Argyll and Bute,314,56.091824,-5.31287
1401,Tom an t-Saighdeir,Argyll and Bute,303,56.286093,-5.278204
1402,Meall an Fhithich,Argyll and Bute,294,56.39305,-5.145638
1403,Cruach Lerags,Argyll and Bute,252,56.374381,-5.502615
1404,Beinn Mhor,Argyll and Bute,194,56.335292,-5.563319
1405,Carn Breugach,Argyll and Bute,189,56.391983,-5.541612
1406,Meall a'Chaise,Argyll and Bute,146.7,56.300159,-5.633603
1407,Stob Odhar,Argyll and Bute,562,55.91154,-5.491575
1408,Cruach Lusach,Argyll and Bute,466.8,55.990654,-5.551326
1409,Cruach Lusach SE Top,Argyll and Bute,465.7,55.989073,-5.546898
1410,Beinn an Tuirc,Argyll and Bute,454,55.567283,-5.566618
1411,Cnoc Moy,Argyll and Bute,446,55.372772,-5.771269
1412,Beinn na Lice,Argyll and Bute,428,55.312396,-5.779388
1413,Cnoc a'Bhaile-shios,Argyll and Bute,422,55.811606,-5.411129
1414,Sgreadan Hill,Argyll and Bute,397,55.507435,-5.578881
1415,The Slate,Argyll and Bute,384,55.385499,-5.737256
1416,Beinn Ghuilean,Argyll and Bute,354,55.394953,-5.587232
1417,Cnoc Reamhar,Argyll and Bute,265,56.061787,-5.589386
1418,Cnoc nan Gabhar,Argyll and Bute,230,55.600241,-5.490535
1419,Beinn an Lochain,Argyll and Bute,901.7,56.230085,-4.876243
1420,Ben Donich,Argyll and Bute,847,56.19792,-4.87327
1421,The Brack,Argyll and Bute,787,56.187751,-4.828551
1422,Beinn Bheula,Argyll and Bute,779,56.141833,-4.971465
1423,Cnoc Coinnich,Argyll and Bute,763.5,56.16661,-4.846554
1424,Beinn Mhor,Argyll and Bute,741,56.072614,-5.041608
1425,Stob an Eas,Argyll and Bute,732,56.224318,-4.928508
1426,Beinn Lochain,Argyll and Bute,702.9,56.162687,-4.964426
1427,Beinn Ruadh,Argyll and Bute,664,56.0526,-4.963117
1428,Stob na Boine Druim-fhinn,Argyll and Bute,658.4,56.180157,-4.951864
1429,Creag Tharsuinn,Argyll and Bute,643,56.07641,-5.073782
1430,Mullach Coire a'Chuir,Argyll and Bute,640,56.1882,-4.948565
1431,Beinn Bheag,Argyll and Bute,618,56.094741,-5.014326
1432,Cruach nan Capull,Argyll and Bute,612,55.971067,-5.052881
1433,Cruach nam Mult,Argyll and Bute,611.2,56.207975,-4.954987
1434,Cruach Neuran,Argyll and Bute,607,55.992944,-5.073662
1435,Cruach nam Miseag,Argyll and Bute,607,56.141109,-4.926151
1436,Sgorach Mor,Argyll and Bute,602.2,56.019944,-5.055157
1437,Cruach Bhuidhe,Argyll and Bute,568.3,56.108193,-5.016417
1438,Cruach nan Capull,Argyll and Bute,565,56.208274,-4.986671
1439,Black Craig,Argyll and Bute,522,55.940538,-5.01825
1440,Coraddie,Argyll and Bute,519,55.954113,-5.124917
1441,Cruach an Lochain,Argyll and Bute,508,56.097516,-5.137434
1442,Beinn Bhreac,Argyll and Bute,507,55.940242,-5.11885
1443,Creachan Dubh,Argyll and Bute,470,56.071126,-5.189484
1444,Beinn Lagan,Argyll and Bute,465,56.15244,-5.028477
1445,Cruach nan Caorach,Argyll and Bute,458,55.974713,-5.220706
1446,Cruach nan Cuilean,Argyll and Bute,432,56.016098,-5.140486
1447,Windy Hill,Argyll and Bute,278,55.882023,-5.129498
1448,Cnoc na Carraige,Argyll and Bute,209,55.864307,-5.237627
1449,Beinn an Oir,Argyll and Bute,785,55.902396,-6.004137
1450,Beinn Shiantaidh,Argyll and Bute,757,55.901671,-5.979362
1451,Beinn a'Chaolais,Argyll and Bute,733,55.888434,-6.017499
1452,Corra Bheinn,Argyll and Bute,575,55.908925,-5.959421
1453,Glas Bheinn,Argyll and Bute,562,55.857293,-5.995892
1454,Scrinadle,Argyll and Bute,508,55.928381,-5.995431
1455,Dubh Bheinn,Argyll and Bute,485,56.032337,-5.883935
1456,Beinn Bhreac,Argyll and Bute,468,56.049666,-5.859584
1457,Cruach Scarba,Argyll and Bute,449,56.176667,-5.722219
1458,Beinn Bhreac,Argyll and Bute,441,55.930615,-5.95079
1459,Ben Garrisdale,Argyll and Bute,373,56.078906,-5.793351
1460,Cruach na Seilcheig,Argyll and Bute,304,56.122434,-5.737192
1461,Cnoc an Ime,Argyll and Bute,303,55.953938,-5.861405
1463,Beinn Bheigier,Argyll and Bute,491,55.733179,-6.095393
1464,Glas Bheinn,Argyll and Bute,472,55.757707,-6.098286
1465,Beinn Bhan,Argyll and Bute,472,55.730051,-6.137954
1466,Sgorr nam Faoileann,Argyll and Bute,429,55.770902,-6.094487
1467,Sgarbh Breac,Argyll and Bute,364,55.912593,-6.152235
1468,Giur-bheinn,Argyll and Bute,318,55.877416,-6.19071
1469,Beinn Dubh,Argyll and Bute,267,55.79788,-6.11447
1470,Beinn Tart a'Mhill,Argyll and Bute,232,55.725714,-6.44415
1471,Beinn Mhor,Argyll and Bute,202,55.582427,-6.294288
1472,Goatfell,North Ayrshire,874,55.625831,-5.191881
1473,Caisteal Abhail,North Ayrshire,859,55.64988,-5.229311
1474,Beinn Tarsuinn,North Ayrshire,826,55.622154,-5.241201
1475,Cir Mhor,North Ayrshire,799,55.639153,-5.22253
1476,Beinn Bharrain - Mullach Buidhe,North Ayrshire,721.4,55.63316,-5.334672
1477,Beinn Bhreac,North Ayrshire,575,55.659775,-5.27119
1478,Meall nan Damh,North Ayrshire,570,55.670538,-5.323632
1479,Beinn Tarsuinn,North Ayrshire,555.9,55.655881,-5.290889
1480,A'Chruach,North Ayrshire,514,55.553205,-5.220404
1481,Ard Bheinn,North Ayrshire,512,55.545727,-5.259039
1482,Sail Chalmadale,North Ayrshire,479.7,55.609693,-5.313033
1483,Tighvein,North Ayrshire,458,55.499369,-5.171514
1484,Creag Ghlas Laggan,North Ayrshire,444,55.698752,-5.220464
1485,Mullach Mor,North Ayrshire,314,55.522918,-5.069861
1486,Clauchland Hills,North Ayrshire,260,55.558325,-5.119876
1487,Carnan Eoin,Argyll and Bute,143,56.108443,-6.16868
1488,Morven,Aberdeenshire,871,57.122639,-3.03088
1489,Ben Rinnes,Moray,841,57.403275,-3.241496
1490,Carn Mor,Aberdeenshire,804,57.249877,-3.218483
1491,Corryhabbie Hill,Moray,781,57.344617,-3.196412
1492,Cook's Cairn,Moray,755,57.335653,-3.160669
1493,Mona Gowan,Aberdeenshire,749,57.138557,-3.098839
1494,Creagan a'Chaise,Moray,722,57.299116,-3.488246
1495,The Buck,Aberdeenshire,721,57.297344,-2.977049
1496,Carn a'Ghille Chearr,Highland,710,57.351039,-3.431444
1497,Ladylea Hill,Aberdeenshire,609.1,57.237182,-3.09004
1498,Meikle Conval,Moray,571,57.418914,-3.181851
1499,Carn Daimh,Moray,570,57.307951,-3.360229
1500,Ben Newe,Aberdeenshire,565,57.215344,-3.025284
1501,Tap o'Noth,Aberdeenshire,563,57.351522,-2.859012
1502,Little Conval,Moray,553,57.438073,-3.177404
1503,The Bochel,Moray,491.2,57.293426,-3.275113
1504,Ben Aigan,Moray,471,57.518242,-3.154041
1505,Cnoc Lochy,Moray,466,57.272024,-3.388922
1506,Knock Hill,Aberdeenshire,430,57.584041,-2.775842
1507,Tom an Uird,Highland,419,57.349388,-3.506683
1508,Craigendarroch,Aberdeenshire,402,57.055463,-3.047582
1509,Knockan,Moray,372,57.503846,-3.084662
1510,Meikle Balloch Hill,Aberdeenshire,366,57.532669,-2.884947
1511,Fourman Hill,Aberdeenshire,344,57.500458,-2.717634
1512,Bin of Cullen,Moray,320,57.665275,-2.87344
1513,Pressendye,Aberdeenshire,619,57.1688,-2.844236
1514,Coiliochbhar Hill,Aberdeenshire,533,57.235062,-2.824031
1515,Bennachie - Oxen Craig,Aberdeenshire,529,57.292746,-2.561087
1516,Lord Arthur's Hill,Aberdeenshire,518,57.266246,-2.808411
1517,Benaquhallie,Aberdeenshire,494,57.167437,-2.65245
1518,Craiglich,Aberdeenshire,476,57.137367,-2.773099
1519,Hill of Fare,Aberdeenshire,471,57.116131,-2.543536
1520,Hill of Foudland,Aberdeenshire,467,57.387775,-2.661749
1521,Cairn William,Aberdeenshire,448,57.240759,-2.571282
1522,Millstone Hill,Aberdeenshire,409,57.271801,-2.537701
1523,Hill of Tillymorgan,Aberdeenshire,380.8,57.40237,-2.580152
1524,Brimmond Hill,Aberdeen,266,57.173027,-2.239569
1525,Waughton Hill,Aberdeenshire,234,57.605181,-2.062615
1526,Windyheads Hill,Aberdeenshire,231,57.647127,-2.247593
1527,Ronas Hill,Shetland Islands,450,60.533856,-1.445935
1528,Da Sneug,Shetland Islands,418,60.140122,-2.095672
1529,Royl Field,Shetland Islands,293,60.039532,-1.291105
1530,Saxa Vord,Shetland Islands,284,60.827476,-0.84106
1531,Fitful Head,Shetland Islands,283,59.905568,-1.382725
1532,Scalla Field,Shetland Islands,281,60.297631,-1.2975
1533,Ward of Scousburgh,Shetland Islands,263,59.952372,-1.307235
1534,Dalescord Hill,Shetland Islands,252,60.398022,-1.288351
1535,Sandness Hill,Shetland Islands,249,60.285213,-1.655205
1536,Da Noup,Shetland Islands,248,60.122289,-2.083725
1537,Ward of Bressay,Shetland Islands,226,60.129965,-1.096708
1538,Ward Hill,Shetland Islands,220,59.545906,-1.632756
1539,Scrae Field,Shetland Islands,216,60.107819,-1.250101
1540,Valla Field,Shetland Islands,216,60.749607,-0.929346
1541,Hill of Arisdale,Shetland Islands,210,60.538091,-1.100522
1542,Noss Head,Shetland Islands,181,60.139749,-1.00463
1543,Cunnigill Hill,Shetland Islands,176,60.389139,-1.218117
1544,White Grunafirth,Shetland Islands,173,60.509378,-1.499907
1545,Faan Hill,Shetland Islands,173,60.504,-1.375572
1546,Mid Ward,Shetland Islands,172,60.369727,-1.421418
1547,Hill of Clibberswick,Shetland Islands,160,60.79154,-0.784968
1548,Vord Hill,Shetland Islands,159,60.620212,-0.864328
1549,Ward Hill,Orkney Islands,481,58.900609,-3.340513
1550,Cuilags,Orkney Islands,435,58.910386,-3.373378
1551,Knap of Trowieglen,Orkney Islands,399,58.866878,-3.319943
1552,Mid Hill,Orkney Islands,275,58.960426,-3.157343
1553,Blotchnie Fiold,Orkney Islands,250,59.143154,-3.018721
1554,Wideford Hill,Orkney Islands,225,58.987653,-3.025714
1555,Milldoe - Mid Tooin,Orkney Islands,224,59.068468,-3.120931
1556,Keelylang Hill,Orkney Islands,221,58.974968,-3.083487
1557,Fitty Hill,Orkney Islands,169,59.286435,-3.00262
1558,Hill of Miffia,Orkney Islands,158,59.00101,-3.328938
1559,Mealaisbhal,Na h-Eileanan Siar,574,58.13163,-7.061166
1560,Beinn Mhor,Na h-Eileanan Siar,572,57.989997,-6.647531
1561,Tathabhal,Na h-Eileanan Siar,515,58.126877,-7.026051
1562,Cracabhal,Na h-Eileanan Siar,514,58.116506,-7.045975
1563,Griomabhal,Na h-Eileanan Siar,497,58.085997,-7.071725
1564,Liuthaid,Na h-Eileanan Siar,492,58.021732,-6.785602
1565,Gormol,Na h-Eileanan Siar,470,57.969452,-6.564529
1566,Caiteseal,Na h-Eileanan Siar,449,57.943189,-6.662203
1567,Suaineabhal,Na h-Eileanan Siar,428,58.169799,-6.971366
1568,Muaitheabhal,Na h-Eileanan Siar,424,58.007458,-6.6438
1569,Guaineamol,Na h-Eileanan Siar,405.2,58.024896,-6.64169
1570,Beinn Mheadhanach,Na h-Eileanan Siar,397,58.105335,-6.940955
1571,Cearnabhal,Na h-Eileanan Siar,378,58.041354,-6.769519
1572,Uisinis,Na h-Eileanan Siar,374,57.959983,-6.50303
1573,Cipeagal Bheag,Na h-Eileanan Siar,336,57.962113,-6.655389
1574,Feiriosbhal,Na h-Eileanan Siar,327,58.038379,-6.574227
1575,Beinn Mholach,Na h-Eileanan Siar,292,58.257396,-6.509773
1576,Roineabhal,Na h-Eileanan Siar,281,58.093248,-6.697297
1577,Beinn Bhragair,Na h-Eileanan Siar,261.9,58.292669,-6.665969
1578,Conostom,Na h-Eileanan Siar,256,58.167403,-6.820328
1579,Muirneag,Na h-Eileanan Siar,248,58.35616,-6.310144
1580,Sleteachal Mhor,Na h-Eileanan Siar,248,58.07029,-6.727685
1581,Coltraiseal Mor,Na h-Eileanan Siar,228,58.102664,-6.824722
1582,Eilean Shiophoirt,Na h-Eileanan Siar,217,58.000605,-6.728337
1583,Forsnabhal,Na h-Eileanan Siar,205,58.213441,-7.005643
1584,Beinn Bhreac,Na h-Eileanan Siar,191,58.022205,-6.393359
1585,Mullach Breac Mhalasgair,Na h-Eileanan Siar,172.5,58.056652,-6.57633
1586,Mullach Buidhe,Na h-Eileanan Siar,160,57.902146,-6.365073
1587,An Cliseam,Na h-Eileanan Siar,799,57.963689,-6.812548
1588,Uisgneabhal Mor,Na h-Eileanan Siar,729,57.972949,-6.871156
1589,Tiorga Mor,Na h-Eileanan Siar,679,57.994886,-6.985049
1590,Oireabhal,Na h-Eileanan Siar,662,57.98306,-6.935215
1591,Stulabhal,Na h-Eileanan Siar,579,58.00648,-6.854672
1592,Sgaoth Aird,Na h-Eileanan Siar,559,57.934788,-6.790117
1593,Ceartabhal,Na h-Eileanan Siar,556,58.004579,-7.008296
1594,Todun,Na h-Eileanan Siar,528,57.928354,-6.714079
1595,Beinn Dhubh,Na h-Eileanan Siar,506,57.899864,-6.914232
1596,Huiseabhal Mor,Na h-Eileanan Siar,489,57.993708,-7.040628
1597,Roineabhal,Na h-Eileanan Siar,460,57.766608,-6.975411
1598,Leosabhal,Na h-Eileanan Siar,412,57.979057,-7.011636
1599,Bleabhal,Na h-Eileanan Siar,398,57.813736,-7.002264
1600,An Coileach,Na h-Eileanan Siar,389,57.829456,-6.910323
1601,Heileasbhal Mor,Na h-Eileanan Siar,384,57.828276,-6.931647
1602,Ceapabhal,Na h-Eileanan Siar,368,57.818749,-7.101395
1603,Sron Romul,Na h-Eileanan Siar,308,58.027655,-7.136932
1604,Taran Mor,Na h-Eileanan Siar,303,58.028777,-7.026374
1605,Greabhal,Na h-Eileanan Siar,280,57.791602,-7.043993
1606,Beinn Ra,Na h-Eileanan Siar,267,57.907665,-7.008683
1607,Sranndabhal,Na h-Eileanan Siar,211,57.751299,-6.983299
1608,Beinn Mhor,Na h-Eileanan Siar,620,57.258699,-7.294969
1609,Hecla,Na h-Eileanan Siar,606,57.290293,-7.271281
1610,Beinn Choradail,Na h-Eileanan Siar,527,57.275241,-7.278909
1611,Stulabhal,Na h-Eileanan Siar,374,57.196164,-7.28881
1612,Triuirebheinn,Na h-Eileanan Siar,357,57.171131,-7.275517
1613,Eabhal,Na h-Eileanan Siar,347,57.528111,-7.182945
1614,Li a'Deas,Na h-Eileanan Siar,281,57.572563,-7.156184
1615,Beinn Ruigh Choinnich,Na h-Eileanan Siar,276,57.156532,-7.2837
1616,Li a'Tuath,Na h-Eileanan Siar,263,57.579357,-7.143177
1617,Airneabhal,Na h-Eileanan Siar,257,57.207923,-7.326665
1618,Easabhal,Na h-Eileanan Siar,243,57.119751,-7.332314
1619,Maireabhal,Na h-Eileanan Siar,230,57.60694,-7.345544
1620,Roineabhal,Na h-Eileanan Siar,201,57.106738,-7.259426
1621,Beinn a'Charnain,Na h-Eileanan Siar,196,57.777844,-7.227207
1622,Beinn Mhor,Na h-Eileanan Siar,190,57.668073,-7.204528
1623,Beinn Sciathan,Na h-Eileanan Siar,186,57.080034,-7.291513
1624,Crogearraidh Mor,Na h-Eileanan Siar,180,57.639313,-7.251024
1625,Beinn Tairbeirt,Na h-Eileanan Siar,168,57.334264,-7.30773
1626,Crogearraidh na Thobha,Na h-Eileanan Siar,154,57.639779,-7.071624
1627,Heabhal,Na h-Eileanan Siar,384,56.966152,-7.468247
1628,Beinn Tangabhal,Na h-Eileanan Siar,332,56.960191,-7.531985
1629,Carnan,Na h-Eileanan Siar,273,56.808479,-7.650532
1630,Carn Ghaltair,Na h-Eileanan Siar,207,56.893001,-7.519621
1631,Beinn Chliad,Na h-Eileanan Siar,206,57.009799,-7.4749
1632,Sotan,Na h-Eileanan Siar,193,56.783387,-7.645879
1633,Heiseabhal Mor,Na h-Eileanan Siar,190,56.9351,-7.548329
1634,An Tobha,Na h-Eileanan Siar,171,56.851364,-7.589841
1635,Maol Domhnaich,Na h-Eileanan Siar,154,56.918657,-7.443392
1636,Conachair,Na h-Eileanan Siar,430,57.820946,-8.573248
1637,Mullach an Eilein,Na h-Eileanan Siar,384,57.871278,-8.491581
1638,Cnoc Glas,Na h-Eileanan Siar,376,57.830077,-8.637906
1639,Stac an Armin,Na h-Eileanan Siar,196,57.880652,-8.497234
1640,Bioda Mor,Na h-Eileanan Siar,178,57.795636,-8.561237
1641,Stac Lee,Na h-Eileanan Siar,172,57.866509,-8.510224
1642,Ben Cleuch,Clackmannanshire,721,56.185684,-3.769489
1643,Andrew Gannel Hill,Clackmannanshire,670,56.185687,-3.743965
1644,Uamh Bheag,Perth and Kinross,665.6,56.28104,-4.115686
1645,King's Seat Hill,Clackmannanshire,648,56.180608,-3.719116
1646,Tarmangie Hill,Clackmannanshire,645,56.193447,-3.70628
1647,Whitewisp Hill,Clackmannanshire,643,56.193447,-3.685328
1648,The Law,Clackmannanshire,638,56.176896,-3.756857
1649,Beinn nan Eun,Perth and Kinross,631,56.293108,-4.063581
1650,Blairdenon Hill,Clackmannanshire,631,56.195894,-3.829871
1651,Beinn Odhar,Perth and Kinross,626,56.289252,-4.079202
1652,Ben Ever,Clackmannanshire,622,56.180489,-3.783928
1653,Meall Clachach,Stirling,618.8,56.287561,-4.120594
1654,Greenforet Hill,Perth and Kinross,616,56.195134,-3.837169
1655,Innerdownie,Perth and Kinross,610,56.20963,-3.667512
1656,Earl's Seat,East Dunbartonshire,578,56.025688,-4.296327
1657,Meikle Bin,Stirling,570,56.013951,-4.139442
1658,West Lomond,Fife,522,56.245467,-3.29684
1659,Stronend,Stirling,511,56.078402,-4.204033
1660,Innerdouny Hill,Perth and Kinross,497,56.248505,-3.563469
1661,Carleatheran,Stirling,485,56.101578,-4.111079
1662,Steele's Knowe,Perth and Kinross,485.5,56.253238,-3.664888
1663,Bishop Hill,Perth and Kinross,461,56.224938,-3.315276
1664,Lendrick Hill,Perth and Kinross,456,56.215805,-3.58323
1665,Craigowl Hill,Angus,455,56.547744,-3.014974
1666,East Lomond,Fife,448,56.242229,-3.221245
1667,Dumyat,Stirling,419,56.157657,-3.876602
1668,Duncolm,West Dunbartonshire,401,55.966005,-4.4515
1669,Dumglow,Perth and Kinross,379,56.15225,-3.489107
1670,King's Seat,Perth and Kinross,377,56.482843,-3.250869
1671,Benarty Hill,Fife,356,56.166047,-3.364217
1672,Largo Law,Fife,290,56.233884,-2.925805
1673,Norman's Law,Fife,285,56.369169,-3.126658
1674,Turin Hill,Angus,252,56.671155,-2.793552
1675,Cairnie Hill,Fife,228.8,56.326307,-3.166961
1676,Moncreiffe Hill,Perth and Kinross,223,56.364194,-3.40049
1677,Mount Hill,Fife,221,56.335983,-3.083769
1678,Tinto,South Lanarkshire,711,55.591692,-3.662535
1679,Hill of Stake,North Ayrshire,522,55.829295,-4.757904
1680,Nutberry Hill,South Lanarkshire,522,55.581889,-3.994367
1681,Dungavel Hill,South Lanarkshire,510,55.55722,-3.677584
1682,Common Hill,South Lanarkshire,488,55.555734,-3.916776
1683,Middlefield Law,East Ayrshire,466,55.552376,-4.092376
1684,Blackside,East Ayrshire,434,55.551338,-4.226689
1685,Blaeloch Hill,North Ayrshire,407,55.759269,-4.80126
1686,Corse Hill,East Renfrewshire,376,55.691375,-4.231304
1687,Brown Carrick Hill,South Ayrshire,287.5,55.407377,-4.712599
1688,Merrick,Dumfries and Galloway,843,55.139262,-4.468411
1689,Corserine,Dumfries and Galloway,814,55.155082,-4.359126
1690,Carlin's Cairn,Dumfries and Galloway,807,55.166709,-4.361179
1691,Kirriereoch Hill,Dumfries and Galloway,786.8,55.151646,-4.479646
1692,Shalloch on Minnoch,South Ayrshire,774.1,55.183647,-4.50248
1693,Meikle Millyea,Dumfries and Galloway,748.64,55.11514,-4.328041
1694,Meikle Millyea - Trig Point,Dumfries and Galloway,746.73,55.118051,-4.324838
1695,Milldown,Dumfries and Galloway,738,55.127476,-4.336304
1696,Benyellary,Dumfries and Galloway,719,55.124116,-4.487382
1697,Lamachan Hill,Dumfries and Galloway,717,55.062738,-4.451543
1698,Millfire,Dumfries and Galloway,716,55.134962,-4.341558
1699,Cairnsmore of Fleet,Dumfries and Galloway,711,54.975466,-4.343328
1700,Tarfessock,South Ayrshire,696.4,55.171348,-4.49951
1701,Meaul,Dumfries and Galloway,695,55.190299,-4.356808
1702,Mullwharchar,East Ayrshire,692,55.14985,-4.427298
1703,Larg Hill,Dumfries and Galloway,676,55.05074,-4.467845
1704,Curleywee,Dumfries and Galloway,674,55.062958,-4.421251
1705,Cairnsgarroch,Dumfries and Galloway,659,55.1941,-4.333542
1706,Caerloch Dhu,South Ayrshire,659.4,55.196403,-4.51472
1707,Millfore,Dumfries and Galloway,657,55.05024,-4.38383
1708,Knee of Cairnsmore,Dumfries and Galloway,657,54.962671,-4.330342
1709,Craignaw,Dumfries and Galloway,645,55.12038,-4.417604
1710,Coran of Portmark,Dumfries and Galloway,623,55.214705,-4.34462
1711,Tarfessock South Top,South Ayrshire,619.9,55.166431,-4.492089
1712,Dungeon Hill,Dumfries and Galloway,620,55.136084,-4.416671
1713,Millfore SW Top,Dumfries and Galloway,620,55.045962,-4.392484
1714,Bow,Dumfries and Galloway,613,55.207054,-4.346088
1715,Bow SW Top,Dumfries and Galloway,612,55.204409,-4.349941
1716,Meikle Mulltaggart,Dumfries and Galloway,612,54.982586,-4.326909
1717,Bow Middle Top,Dumfries and Galloway,610,55.20609,-4.347635
1718,Craigenreoch,South Ayrshire,565,55.185901,-4.616477
1719,Craiglee,Dumfries and Galloway,531,55.091751,-4.41213
1720,Craiglee,East Ayrshire,523,55.236672,-4.406521
1721,Cairnsmore,Dumfries and Galloway,493,55.056303,-4.21863
1722,Craignell,Dumfries and Galloway,477,55.04778,-4.334995
1723,Fell of Fleet,Dumfries and Galloway,470,55.010075,-4.243604
1724,Cairnharrow,Dumfries and Galloway,457,54.878127,-4.287538
1725,Beneraird,Dumfries and Galloway,439,55.066009,-4.921481
1726,Garleffin Fell,South Ayrshire,429.6,55.256572,-4.598504
1727,Shaw Hill,Dumfries and Galloway,383,55.0207,-4.20699
1728,Pibble Hill,Dumfries and Galloway,383,54.917749,-4.289037
1729,Bengray,Dumfries and Galloway,366,54.914238,-4.137861
1730,White Top of Culreoch,Dumfries and Galloway,344,54.945339,-4.186341
1731,Ailsa Craig,South Ayrshire,340,55.252795,-5.118399
1732,Carlock Hill,South Ayrshire,323,55.05262,-4.998446
1733,Grey Hill,South Ayrshire,297,55.19525,-4.884972
1734,Troweir Hill,South Ayrshire,295.6,55.225927,-4.813921
1735,Airie Hill,Dumfries and Galloway,291,54.992711,-4.15654
1736,Knockdolian,South Ayrshire,265,55.12163,-4.960274
1737,Cairn Pat,Dumfries and Galloway,182,54.86363,-5.048894
1738,Inshanks Fell,Dumfries and Galloway,163.9,54.679387,-4.926866
1739,Cairnsmore of Carsphairn,Dumfries and Galloway,797,55.256044,-4.212722
1740,Green Lowther,South Lanarkshire,732,55.389863,-3.737528
1741,Lowther Hill,Dumfries and Galloway,725,55.377924,-3.752898
1742,Beninner,Dumfries and Galloway,710,55.248873,-4.194701
1743,Blackcraig Hill,East Ayrshire,700.9,55.333086,-4.133446
1744,Windy Standard,Dumfries and Galloway,698,55.287967,-4.174384
1745,Queensberry,Dumfries and Galloway,697,55.281469,-3.593082
1746,Ballencleuch Law,South Lanarkshire,689,55.327246,-3.679204
1747,Rodger Law,South Lanarkshire,688,55.334904,-3.664061
1748,Peden Head,South Lanarkshire,691,55.393297,-3.730447
1749,Blacklorg Hill,Dumfries and Galloway,680.9,55.313772,-4.122559
1750,Dun Law,South Lanarkshire,677,55.404812,-3.712391
1751,Wedder Law,Dumfries and Galloway,672,55.305334,-3.673426
1752,Gana Hill,Dumfries and Galloway,668,55.291971,-3.648732
1753,Dungrain Law,South Lanarkshire,669,55.399166,-3.720912
1754,Scaw'd Law,Dumfries and Galloway,663,55.316319,-3.699891
1755,Shiel Dod,South Lanarkshire,668,55.312238,-3.660071
1756,Moorbrock Hill,Dumfries and Galloway,650,55.259496,-4.172998
1757,Comb Law,South Lanarkshire,645,55.34898,-3.667175
1758,Meikledodd Hill,Dumfries and Galloway,643,55.300651,-4.110753
1759,Alhang,Dumfries and Galloway,642,55.284623,-4.139319
1760,Moorbrock Hill North Top,Dumfries and Galloway,641,55.263845,-4.181106
1761,East Mount Lowther,Dumfries and Galloway,631,55.371074,-3.771091
1762,Alwhat,Dumfries and Galloway,628,55.293775,-4.133007
1763,Cold Moss,Dumfries and Galloway,628,55.366622,-3.738765
1764,Jedburgh Knees,Dumfries and Galloway,621,55.298492,-4.183955
1765,Lousie Wood Law,South Lanarkshire,619,55.419601,-3.688793
1766,Trostan Hill,Dumfries and Galloway,617,55.288944,-4.18762
1767,Glenleith Fell,Dumfries and Galloway,612,55.302956,-3.699598
1768,Keoch Rig,Dumfries and Galloway,611,55.273779,-4.178502
1769,Earncraig Hill,Dumfries and Galloway,611,55.295754,-3.618698
1770,Comb Head,Dumfries and Galloway,622,55.364463,-3.735368
1771,Dugland,Dumfries and Galloway,608,55.282334,-4.20259
1772,Well Hill,Dumfries and Galloway,606,55.340114,-3.714282
1773,Colt Hill,Dumfries and Galloway,598,55.268044,-4.049505
1774,Cairn Table,East Ayrshire,593,55.495139,-4.020867
1775,Green Hill,Dumfries and Galloway,588,55.39358,-3.797409
1776,Steygail,Dumfries and Galloway,573,55.357257,-3.754493
1777,Criffel,Dumfries and Galloway,569,54.940557,-3.629248
1778,Hods Hill,Dumfries and Galloway,569,55.372969,-3.578356
1779,Enoch Hill,East Ayrshire,569,55.333662,-4.26834
1780,Stony Hill,East Ayrshire,561,55.470887,-4.017791
1781,Cairnkinna Hill,Dumfries and Galloway,554,55.295945,-3.905631
1782,Wether Hill,Dumfries and Galloway,535,55.224914,-4.050903
1783,Kirkland Hill,Dumfries and Galloway,511,55.424045,-4.005682
1784,Benbeoch,East Ayrshire,463,55.345601,-4.374149
1785,Cairn Hill,Dumfries and Galloway,451,55.343872,-3.811936
1786,Bogrie Hill,Dumfries and Galloway,432,55.152483,-3.901594
1787,Fell Hill,Dumfries and Galloway,417,55.13811,-4.006455
1788,Bennan,Dumfries and Galloway,398,55.073129,-3.846732
1789,Bishop Forest Hill,Dumfries and Galloway,392,55.097776,-3.805158
1790,Bengairn,Dumfries and Galloway,391,54.870246,-3.917302
1791,Darngarroch Hill,Dumfries and Galloway,373,55.114201,-3.877415
1792,Wauk Hill,Dumfries and Galloway,357,55.199139,-3.822076
1793,Mochrum Fell,Dumfries and Galloway,317,55.053338,-3.999143
1794,Maidenpap,Dumfries and Galloway,314,54.937023,-3.72194
1795,Bainloch Hill,Dumfries and Galloway,287,54.896273,-3.726922
1796,Woodhead Hill,Dumfries and Galloway,258,55.024668,-3.679107
1797,Hightown Hill,Dumfries and Galloway,250,55.136821,-3.513958
1798,See Morris Hill,Dumfries and Galloway,240,55.083907,-3.720162
1799,Killyleoch Hill,Dumfries and Galloway,239.7,55.119993,-3.759924
1800,Windlestraw Law,Scottish Borders,659.2,55.677254,-3.001339
